{
   "type": "FeatureCollection",
   "features": [
  {
    "type": "Feature",
    "geometry": {
       "type": "Point",
       "coordinates":  [ -12.196542,14.756114 ]
    },
    "properties": {
    "amenity":"clinic",
    "name":"Centre de Santé de Tafacirga"
    }
  },
  {
    "type": "Feature",
    "geometry": {
       "type": "Point",
       "coordinates":  [ -12.18312,14.56685 ]
    },
    "properties": {
    "amenity":"doctors",
    "name":"Site ASC"
    }
  },
  {
    "type": "Feature",
    "geometry": {
       "type": "Point",
       "coordinates":  [ -12.150083,14.619172 ]
    },
    "properties": {
    "amenity":"doctors",
    "name":"CSCOM DE FEGUI"
    }
  },
  {
    "type": "Feature",
    "geometry": {
       "type": "Point",
       "coordinates":  [ -12.121959,14.371422 ]
    },
    "properties": {
    "amenity":"doctors",
    "name":"Site ASC DIGUI"
    }
  },
  {
    "type": "Feature",
    "geometry": {
       "type": "Point",
       "coordinates":  [ -12.057819,14.718114 ]
    },
    "properties": {
    "amenity":"doctors",
    "name":"CSCOM de Lany Tounka"
    }
  },
  {
    "type": "Feature",
    "geometry": {
       "type": "Point",
       "coordinates":  [ -12.018937,14.29161 ]
    },
    "properties": {
    "amenity":"doctors",
    "name":"CSCOM de Dakassenou"
    }
  },
  {
    "type": "Feature",
    "geometry": {
       "type": "Point",
       "coordinates":  [ -11.92515,14.637743 ]
    },
    "properties": {
    "amenity":"doctors",
    "name":"Dispensaire"
    }
  },
  {
    "type": "Feature",
    "geometry": {
       "type": "Point",
       "coordinates":  [ -11.853151,14.398859 ]
    },
    "properties": {
    "amenity":"doctors",
    "name":"Centre de santé"
    }
  },
  {
    "type": "Feature",
    "geometry": {
       "type": "Point",
       "coordinates":  [ -11.842275,13.831532 ]
    },
    "properties": {
    "amenity":"doctors",
    "name":"CSCOM de Kakadian"
    }
  },
  {
    "type": "Feature",
    "geometry": {
       "type": "Point",
       "coordinates":  [ -11.831049,14.440547 ]
    },
    "properties": {
    "amenity":"clinic",
    "name":"CSCOM de AMBIDEDI POSTE"
    }
  },
  {
    "type": "Feature",
    "geometry": {
       "type": "Point",
       "coordinates":  [ -11.811768,14.331769 ]
    },
    "properties": {
    "amenity":"doctors",
    "name":"CSCOM de Gouka"
    }
  },
  {
    "type": "Feature",
    "geometry": {
       "type": "Point",
       "coordinates":  [ -11.787684,14.586192 ]
    },
    "properties": {
    "amenity":"hospital",
    "name":"CSCOM"
    }
  },
  {
    "type": "Feature",
    "geometry": {
       "type": "Point",
       "coordinates":  [ -11.786175,14.277646 ]
    },
    "properties": {
    "amenity":"doctors",
    "name":"SITE ASC Yassalam"
    }
  },
  {
    "type": "Feature",
    "geometry": {
       "type": "Point",
       "coordinates":  [ -11.75126,14.591698 ]
    },
    "properties": {
    "amenity":"doctors",
    "name":"CSCOM D'AMBIDEDI KHORE"
    }
  },
  {
    "type": "Feature",
    "geometry": {
       "type": "Point",
       "coordinates":  [ -11.720967,14.916225 ]
    },
    "properties": {
    "amenity":"hospital",
    "name":""
    }
  },
  {
    "type": "Feature",
    "geometry": {
       "type": "Point",
       "coordinates":  [ -11.716487,14.380745 ]
    },
    "properties": {
    "amenity":"clinic",
    "name":"CSCOM de Marena"
    }
  },
  {
    "type": "Feature",
    "geometry": {
       "type": "Point",
       "coordinates":  [ -11.660526,14.45626 ]
    },
    "properties": {
    "amenity":"doctors",
    "name":"SITE ASC SINSINCOURA"
    }
  },
  {
    "type": "Feature",
    "geometry": {
       "type": "Point",
       "coordinates":  [ -11.652671,15.149416 ]
    },
    "properties": {
    "amenity":"hospital",
    "name":""
    }
  },
  {
    "type": "Feature",
    "geometry": {
       "type": "Point",
       "coordinates":  [ -11.639375,13.709713 ]
    },
    "properties": {
    "amenity":"doctors",
    "name":"CSCOM DE KOBOKOTOSSOU"
    }
  },
  {
    "type": "Feature",
    "geometry": {
       "type": "Point",
       "coordinates":  [ -11.47568,15.374857 ]
    },
    "properties": {
    "amenity":"hospital",
    "name":""
    }
  },
  {
    "type": "Feature",
    "geometry": {
       "type": "Point",
       "coordinates":  [ -11.473211,15.375787 ]
    },
    "properties": {
    "amenity":"pharmacy",
    "name":""
    }
  },
  {
    "type": "Feature",
    "geometry": {
       "type": "Point",
       "coordinates":  [ -11.458166,14.436222 ]
    },
    "properties": {
    "amenity":"doctors",
    "name":"Cabinet Medical Lafia-Sud"
    }
  },
  {
    "type": "Feature",
    "geometry": {
       "type": "Point",
       "coordinates":  [ -11.45546,14.45196 ]
    },
    "properties": {
    "amenity":"pharmacy",
    "name":""
    }
  },
  {
    "type": "Feature",
    "geometry": {
       "type": "Point",
       "coordinates":  [ -11.452602,14.44141 ]
    },
    "properties": {
    "amenity":"pharmacy",
    "name":"Pharmacie Mala"
    }
  },
  {
    "type": "Feature",
    "geometry": {
       "type": "Point",
       "coordinates":  [ -11.450333,14.432748 ]
    },
    "properties": {
    "amenity":"pharmacy",
    "name":"Pharmacie Lafia"
    }
  },
  {
    "type": "Feature",
    "geometry": {
       "type": "Point",
       "coordinates":  [ -11.450097,14.450022 ]
    },
    "properties": {
    "amenity":"clinic",
    "name":"Polyclinique Yonki - Saha"
    }
  },
  {
    "type": "Feature",
    "geometry": {
       "type": "Point",
       "coordinates":  [ -11.448388,14.449055 ]
    },
    "properties": {
    "amenity":"doctors",
    "name":"Santé Plus"
    }
  },
  {
    "type": "Feature",
    "geometry": {
       "type": "Point",
       "coordinates":  [ -11.446557,14.438706 ]
    },
    "properties": {
    "amenity":"hospital",
    "name":"CSCOM de Lafia"
    }
  },
  {
    "type": "Feature",
    "geometry": {
       "type": "Point",
       "coordinates":  [ -11.442584,14.438298 ]
    },
    "properties": {
    "amenity":"clinic",
    "name":"CSCOM de KAYES LIBERTE"
    }
  },
  {
    "type": "Feature",
    "geometry": {
       "type": "Point",
       "coordinates":  [ -11.440488,14.438643 ]
    },
    "properties": {
    "amenity":"pharmacy",
    "name":"Pharmacie de la Mission"
    }
  },
  {
    "type": "Feature",
    "geometry": {
       "type": "Point",
       "coordinates":  [ -11.439313,14.450713 ]
    },
    "properties": {
    "amenity":"hospital",
    "name":"PMI"
    }
  },
  {
    "type": "Feature",
    "geometry": {
       "type": "Point",
       "coordinates":  [ -11.438626,14.444414 ]
    },
    "properties": {
    "amenity":"pharmacy",
    "name":""
    }
  },
  {
    "type": "Feature",
    "geometry": {
       "type": "Point",
       "coordinates":  [ -11.437231,14.445342 ]
    },
    "properties": {
    "amenity":"pharmacy",
    "name":"Couli Pharme"
    }
  },
  {
    "type": "Feature",
    "geometry": {
       "type": "Point",
       "coordinates":  [ -11.43554,14.4395 ]
    },
    "properties": {
    "amenity":"clinic",
    "name":"Centre De Santé Communautaire/ CSCOM De Plateau"
    }
  },
  {
    "type": "Feature",
    "geometry": {
       "type": "Point",
       "coordinates":  [ -11.435534,14.440397 ]
    },
    "properties": {
    "amenity":"pharmacy",
    "name":"pharmacie wague"
    }
  },
  {
    "type": "Feature",
    "geometry": {
       "type": "Point",
       "coordinates":  [ -11.435304,14.440123 ]
    },
    "properties": {
    "amenity":"pharmacy",
    "name":"Pharmacie Traditionnelle Yacouba Samake"
    }
  },
  {
    "type": "Feature",
    "geometry": {
       "type": "Point",
       "coordinates":  [ -11.433665,14.441734 ]
    },
    "properties": {
    "amenity":"clinic",
    "name":"Centre de Santé de Référence de Kayes"
    }
  },
  {
    "type": "Feature",
    "geometry": {
       "type": "Point",
       "coordinates":  [ -11.433297,14.434883 ]
    },
    "properties": {
    "amenity":"clinic",
    "name":"Clinique du Fleuve"
    }
  },
  {
    "type": "Feature",
    "geometry": {
       "type": "Point",
       "coordinates":  [ -11.432165,14.432673 ]
    },
    "properties": {
    "amenity":"pharmacy",
    "name":""
    }
  },
  {
    "type": "Feature",
    "geometry": {
       "type": "Point",
       "coordinates":  [ -11.428147,14.457035 ]
    },
    "properties": {
    "amenity":"pharmacy",
    "name":"Pharmacie S.A"
    }
  },
  {
    "type": "Feature",
    "geometry": {
       "type": "Point",
       "coordinates":  [ -11.427763,14.446589 ]
    },
    "properties": {
    "amenity":"pharmacy",
    "name":"Officine de Khasso"
    }
  },
  {
    "type": "Feature",
    "geometry": {
       "type": "Point",
       "coordinates":  [ -11.426334,14.431787 ]
    },
    "properties": {
    "amenity":"pharmacy",
    "name":"Pharmacie de la Gare"
    }
  },
  {
    "type": "Feature",
    "geometry": {
       "type": "Point",
       "coordinates":  [ -11.424403,14.461032 ]
    },
    "properties": {
    "amenity":"pharmacy",
    "name":"Pharmacie Arouna Keita"
    }
  },
  {
    "type": "Feature",
    "geometry": {
       "type": "Point",
       "coordinates":  [ -11.423209,14.42771 ]
    },
    "properties": {
    "amenity":"pharmacy",
    "name":"Pharmacie Cherifla"
    }
  },
  {
    "type": "Feature",
    "geometry": {
       "type": "Point",
       "coordinates":  [ -11.403813,12.560501 ]
    },
    "properties": {
    "amenity":"hospital",
    "name":""
    }
  },
  {
    "type": "Feature",
    "geometry": {
       "type": "Point",
       "coordinates":  [ -11.339892,14.616808 ]
    },
    "properties": {
    "amenity":"hospital",
    "name":"Cescom"
    }
  },
  {
    "type": "Feature",
    "geometry": {
       "type": "Point",
       "coordinates":  [ -11.336768,14.753167 ]
    },
    "properties": {
    "amenity":"doctors",
    "name":"Centre de Santé de sirimoulou"
    }
  },
  {
    "type": "Feature",
    "geometry": {
       "type": "Point",
       "coordinates":  [ -11.285696,12.11998 ]
    },
    "properties": {
    "amenity":"clinic",
    "name":"Centre de Santé Communautaire de Darsalam"
    }
  },
  {
    "type": "Feature",
    "geometry": {
       "type": "Point",
       "coordinates":  [ -11.273072,12.26365 ]
    },
    "properties": {
    "amenity":"clinic",
    "name":"Centre de Santé Communautaire de Falea"
    }
  },
  {
    "type": "Feature",
    "geometry": {
       "type": "Point",
       "coordinates":  [ -11.239408,12.850712 ]
    },
    "properties": {
    "amenity":"clinic",
    "name":""
    }
  },
  {
    "type": "Feature",
    "geometry": {
       "type": "Point",
       "coordinates":  [ -11.239165,12.840009 ]
    },
    "properties": {
    "amenity":"clinic",
    "name":"Centre de Santé de Référence de Kéniéba"
    }
  },
  {
    "type": "Feature",
    "geometry": {
       "type": "Point",
       "coordinates":  [ -11.23522,12.844971 ]
    },
    "properties": {
    "amenity":"doctors",
    "name":"Centre de Santé Communautaire de Kéniéba Central"
    }
  },
  {
    "type": "Feature",
    "geometry": {
       "type": "Point",
       "coordinates":  [ -11.2314,12.84015 ]
    },
    "properties": {
    "amenity":"clinic",
    "name":"Centre de Santé Communautaire de Kéniéba Central"
    }
  },
  {
    "type": "Feature",
    "geometry": {
       "type": "Point",
       "coordinates":  [ -11.137822,12.669719 ]
    },
    "properties": {
    "amenity":"clinic",
    "name":"Centre de Santé Communautaire de Dabia"
    }
  },
  {
    "type": "Feature",
    "geometry": {
       "type": "Point",
       "coordinates":  [ -11.097121,14.541449 ]
    },
    "properties": {
    "amenity":"doctors",
    "name":"Centre de santé"
    }
  },
  {
    "type": "Feature",
    "geometry": {
       "type": "Point",
       "coordinates":  [ -11.096592,12.628186 ]
    },
    "properties": {
    "amenity":"clinic",
    "name":"Centre de Santé Communautaire de Diabarou"
    }
  },
  {
    "type": "Feature",
    "geometry": {
       "type": "Point",
       "coordinates":  [ -11.069388,12.212435 ]
    },
    "properties": {
    "amenity":"clinic",
    "name":"Centre de Santé Communautaire de Kofoulabé"
    }
  },
  {
    "type": "Feature",
    "geometry": {
       "type": "Point",
       "coordinates":  [ -11.05063,12.780307 ]
    },
    "properties": {
    "amenity":"clinic",
    "name":"Centre de Santé Communautaire de Dombia"
    }
  },
  {
    "type": "Feature",
    "geometry": {
       "type": "Point",
       "coordinates":  [ -11.025301,14.596617 ]
    },
    "properties": {
    "amenity":"doctors",
    "name":"Centre sante"
    }
  },
  {
    "type": "Feature",
    "geometry": {
       "type": "Point",
       "coordinates":  [ -11.024319,14.59832 ]
    },
    "properties": {
    "amenity":"doctors",
    "name":"Centre de santé"
    }
  },
  {
    "type": "Feature",
    "geometry": {
       "type": "Point",
       "coordinates":  [ -11.018739,12.727214 ]
    },
    "properties": {
    "amenity":"clinic",
    "name":"Centre de Santé Communautaire de Guénégore"
    }
  },
  {
    "type": "Feature",
    "geometry": {
       "type": "Point",
       "coordinates":  [ -10.946006,12.746966 ]
    },
    "properties": {
    "amenity":"clinic",
    "name":"Centre de Santé Communautaire de Sekotoba"
    }
  },
  {
    "type": "Feature",
    "geometry": {
       "type": "Point",
       "coordinates":  [ -10.897751,12.432775 ]
    },
    "properties": {
    "amenity":"clinic",
    "name":"Centre de Santé Communautaire de Faraba Kenieba"
    }
  },
  {
    "type": "Feature",
    "geometry": {
       "type": "Point",
       "coordinates":  [ -10.832295,13.803423 ]
    },
    "properties": {
    "amenity":"clinic",
    "name":"Centre de Santé de Référence de Bafoulabé"
    }
  },
  {
    "type": "Feature",
    "geometry": {
       "type": "Point",
       "coordinates":  [ -10.813149,14.64045 ]
    },
    "properties": {
    "amenity":"doctors",
    "name":"Centre de santé de Dialaka"
    }
  },
  {
    "type": "Feature",
    "geometry": {
       "type": "Point",
       "coordinates":  [ -10.79416,12.71072 ]
    },
    "properties": {
    "amenity":"clinic",
    "name":"Centre de Santé Communautaire de Baye Kenieba"
    }
  },
  {
    "type": "Feature",
    "geometry": {
       "type": "Point",
       "coordinates":  [ -10.757611,15.106525 ]
    },
    "properties": {
    "amenity":"clinic",
    "name":"CSCOM de GORY"
    }
  },
  {
    "type": "Feature",
    "geometry": {
       "type": "Point",
       "coordinates":  [ -10.74613,14.645673 ]
    },
    "properties": {
    "amenity":"doctors",
    "name":"Centre de Santé de Marena"
    }
  },
  {
    "type": "Feature",
    "geometry": {
       "type": "Point",
       "coordinates":  [ -10.746102,14.646829 ]
    },
    "properties": {
    "amenity":"pharmacy",
    "name":""
    }
  },
  {
    "type": "Feature",
    "geometry": {
       "type": "Point",
       "coordinates":  [ -10.746016,14.645866 ]
    },
    "properties": {
    "amenity":"pharmacy",
    "name":"Pharmacie du Centre de Santé"
    }
  },
  {
    "type": "Feature",
    "geometry": {
       "type": "Point",
       "coordinates":  [ -10.725821,15.121328 ]
    },
    "properties": {
    "amenity":"doctors",
    "name":"Cabinet Kagni Naré Cissé"
    }
  },
  {
    "type": "Feature",
    "geometry": {
       "type": "Point",
       "coordinates":  [ -10.725701,15.132462 ]
    },
    "properties": {
    "amenity":"clinic",
    "name":"CSCOM de Yaguiné"
    }
  },
  {
    "type": "Feature",
    "geometry": {
       "type": "Point",
       "coordinates":  [ -10.725503,15.120675 ]
    },
    "properties": {
    "amenity":"doctors",
    "name":"Cabinet Medical Yonki Saha"
    }
  },
  {
    "type": "Feature",
    "geometry": {
       "type": "Point",
       "coordinates":  [ -10.699402,14.641849 ]
    },
    "properties": {
    "amenity":"doctors",
    "name":"Centre de Santé de Lambatra"
    }
  },
  {
    "type": "Feature",
    "geometry": {
       "type": "Point",
       "coordinates":  [ -10.699291,12.200407 ]
    },
    "properties": {
    "amenity":"clinic",
    "name":"Centre de Santé Communautaire de Sagalo"
    }
  },
  {
    "type": "Feature",
    "geometry": {
       "type": "Point",
       "coordinates":  [ -10.699095,14.642089 ]
    },
    "properties": {
    "amenity":"pharmacy",
    "name":"Pharmacie du Centre de Santé de Lambatra"
    }
  },
  {
    "type": "Feature",
    "geometry": {
       "type": "Point",
       "coordinates":  [ -10.648013,12.076853 ]
    },
    "properties": {
    "amenity":"clinic",
    "name":"Centre de Santé Communautaire de Dittin"
    }
  },
  {
    "type": "Feature",
    "geometry": {
       "type": "Point",
       "coordinates":  [ -10.57326,15.120393 ]
    },
    "properties": {
    "amenity":"clinic",
    "name":"Centre de Santé de Référence de Yélimané"
    }
  },
  {
    "type": "Feature",
    "geometry": {
       "type": "Point",
       "coordinates":  [ -10.522631,14.174271 ]
    },
    "properties": {
    "amenity":"clinic",
    "name":"CSCOM de DEMEKE"
    }
  },
  {
    "type": "Feature",
    "geometry": {
       "type": "Point",
       "coordinates":  [ -10.512149,14.105822 ]
    },
    "properties": {
    "amenity":"clinic",
    "name":"CSCOM de OUSSOUBIDIAGNA"
    }
  },
  {
    "type": "Feature",
    "geometry": {
       "type": "Point",
       "coordinates":  [ -10.462413,14.244239 ]
    },
    "properties": {
    "amenity":"clinic",
    "name":"Centre de Santé de Référence d'Oussoubidiagna"
    }
  },
  {
    "type": "Feature",
    "geometry": {
       "type": "Point",
       "coordinates":  [ -10.417256,15.00564 ]
    },
    "properties": {
    "amenity":"pharmacy",
    "name":""
    }
  },
  {
    "type": "Feature",
    "geometry": {
       "type": "Point",
       "coordinates":  [ -10.402141,12.602804 ]
    },
    "properties": {
    "amenity":"clinic",
    "name":"Centre de Santé Communautaire de Kouroukoto"
    }
  },
  {
    "type": "Feature",
    "geometry": {
       "type": "Point",
       "coordinates":  [ -10.17852,12.45094 ]
    },
    "properties": {
    "amenity":"clinic",
    "name":"Centre de Santé Communautaire de Sitaninkoto"
    }
  },
  {
    "type": "Feature",
    "geometry": {
       "type": "Point",
       "coordinates":  [ -9.964861,12.223887 ]
    },
    "properties": {
    "amenity":"clinic",
    "name":"Centre de Santé Communautaire de Balea"
    }
  },
  {
    "type": "Feature",
    "geometry": {
       "type": "Point",
       "coordinates":  [ -9.87429,12.66323 ]
    },
    "properties": {
    "amenity":"clinic",
    "name":"Centre de Santé Communautaire de Kokofata"
    }
  },
  {
    "type": "Feature",
    "geometry": {
       "type": "Point",
       "coordinates":  [ -9.874231,13.444277 ]
    },
    "properties": {
    "amenity":"hospital",
    "name":""
    }
  },
  {
    "type": "Feature",
    "geometry": {
       "type": "Point",
       "coordinates":  [ -9.873227,13.443359 ]
    },
    "properties": {
    "amenity":"pharmacy",
    "name":""
    }
  },
  {
    "type": "Feature",
    "geometry": {
       "type": "Point",
       "coordinates":  [ -9.872364,12.969349 ]
    },
    "properties": {
    "amenity":"clinic",
    "name":"Centre de Santé Communautaire de Tambaga"
    }
  },
  {
    "type": "Feature",
    "geometry": {
       "type": "Point",
       "coordinates":  [ -9.845206,12.816369 ]
    },
    "properties": {
    "amenity":"clinic",
    "name":"Centre de Santé Communautaire de Bougaribaya"
    }
  },
  {
    "type": "Feature",
    "geometry": {
       "type": "Point",
       "coordinates":  [ -9.83757,12.18147 ]
    },
    "properties": {
    "amenity":"clinic",
    "name":"Centre de Santé Communautaire de Kabéléa"
    }
  },
  {
    "type": "Feature",
    "geometry": {
       "type": "Point",
       "coordinates":  [ -9.604445,13.075833 ]
    },
    "properties": {
    "amenity":"clinic",
    "name":"Centre de Santé Communautaire de Kpoeba"
    }
  },
  {
    "type": "Feature",
    "geometry": {
       "type": "Point",
       "coordinates":  [ -9.590494,15.231031 ]
    },
    "properties": {
    "amenity":"doctors",
    "name":"Cabinet Medical"
    }
  },
  {
    "type": "Feature",
    "geometry": {
       "type": "Point",
       "coordinates":  [ -9.590287,15.22705 ]
    },
    "properties": {
    "amenity":"clinic",
    "name":"NIORO clinic"
    }
  },
  {
    "type": "Feature",
    "geometry": {
       "type": "Point",
       "coordinates":  [ -9.583707,13.029808 ]
    },
    "properties": {
    "amenity":"clinic",
    "name":"Centre de Santé Communautaire de Koféba"
    }
  },
  {
    "type": "Feature",
    "geometry": {
       "type": "Point",
       "coordinates":  [ -9.506641,13.026539 ]
    },
    "properties": {
    "amenity":"clinic",
    "name":"Clinique"
    }
  },
  {
    "type": "Feature",
    "geometry": {
       "type": "Point",
       "coordinates":  [ -9.503694,13.02854 ]
    },
    "properties": {
    "amenity":"pharmacy",
    "name":""
    }
  },
  {
    "type": "Feature",
    "geometry": {
       "type": "Point",
       "coordinates":  [ -9.5031,12.584451 ]
    },
    "properties": {
    "amenity":"clinic",
    "name":"Centre de Santé Communautaire de Gallé"
    }
  },
  {
    "type": "Feature",
    "geometry": {
       "type": "Point",
       "coordinates":  [ -9.498185,13.033491 ]
    },
    "properties": {
    "amenity":"pharmacy",
    "name":"Pharmacie Diahaba"
    }
  },
  {
    "type": "Feature",
    "geometry": {
       "type": "Point",
       "coordinates":  [ -9.498096,13.033709 ]
    },
    "properties": {
    "amenity":"pharmacy",
    "name":""
    }
  },
  {
    "type": "Feature",
    "geometry": {
       "type": "Point",
       "coordinates":  [ -9.494178,13.03924 ]
    },
    "properties": {
    "amenity":"pharmacy",
    "name":"Pharmacie Moribougou"
    }
  },
  {
    "type": "Feature",
    "geometry": {
       "type": "Point",
       "coordinates":  [ -9.492626,13.04171 ]
    },
    "properties": {
    "amenity":"clinic",
    "name":"Clinique"
    }
  },
  {
    "type": "Feature",
    "geometry": {
       "type": "Point",
       "coordinates":  [ -9.491259,13.036153 ]
    },
    "properties": {
    "amenity":"doctors",
    "name":"Cabinet médical Mandé"
    }
  },
  {
    "type": "Feature",
    "geometry": {
       "type": "Point",
       "coordinates":  [ -9.489428,13.042762 ]
    },
    "properties": {
    "amenity":"clinic",
    "name":"Clinique Medical Lumière"
    }
  },
  {
    "type": "Feature",
    "geometry": {
       "type": "Point",
       "coordinates":  [ -9.489294,13.041569 ]
    },
    "properties": {
    "amenity":"pharmacy",
    "name":"Pharmacie El hadji Oumar Kallé"
    }
  },
  {
    "type": "Feature",
    "geometry": {
       "type": "Point",
       "coordinates":  [ -9.488034,13.03606 ]
    },
    "properties": {
    "amenity":"pharmacy",
    "name":"Pharmacie Abder Imame"
    }
  },
  {
    "type": "Feature",
    "geometry": {
       "type": "Point",
       "coordinates":  [ -9.485876,13.042832 ]
    },
    "properties": {
    "amenity":"doctors",
    "name":"Cabinet médical Kita Gare"
    }
  },
  {
    "type": "Feature",
    "geometry": {
       "type": "Point",
       "coordinates":  [ -9.485738,13.042869 ]
    },
    "properties": {
    "amenity":"pharmacy",
    "name":"Pharmacie Kita Gare"
    }
  },
  {
    "type": "Feature",
    "geometry": {
       "type": "Point",
       "coordinates":  [ -9.482469,13.04071 ]
    },
    "properties": {
    "amenity":"pharmacy",
    "name":"Pharmacie LIBERTE"
    }
  },
  {
    "type": "Feature",
    "geometry": {
       "type": "Point",
       "coordinates":  [ -9.478398,13.039126 ]
    },
    "properties": {
    "amenity":"clinic",
    "name":"Clinique Medical Brico"
    }
  },
  {
    "type": "Feature",
    "geometry": {
       "type": "Point",
       "coordinates":  [ -9.477436,13.040238 ]
    },
    "properties": {
    "amenity":"pharmacy",
    "name":"Pharmacie Soulemane Diakité"
    }
  },
  {
    "type": "Feature",
    "geometry": {
       "type": "Point",
       "coordinates":  [ -9.476558,12.903449 ]
    },
    "properties": {
    "amenity":"clinic",
    "name":"Centre de Santé Communautaire de Founia-Moribougou"
    }
  },
  {
    "type": "Feature",
    "geometry": {
       "type": "Point",
       "coordinates":  [ -9.470242,13.037416 ]
    },
    "properties": {
    "amenity":"pharmacy",
    "name":"Pharmacie du Mont de Kita"
    }
  },
  {
    "type": "Feature",
    "geometry": {
       "type": "Point",
       "coordinates":  [ -9.4701,13.037195 ]
    },
    "properties": {
    "amenity":"pharmacy",
    "name":"Pharmacopé"
    }
  },
  {
    "type": "Feature",
    "geometry": {
       "type": "Point",
       "coordinates":  [ -9.462135,12.892637 ]
    },
    "properties": {
    "amenity":"clinic",
    "name":"Centre de Santé Communautaire de Benkadi Founia"
    }
  },
  {
    "type": "Feature",
    "geometry": {
       "type": "Point",
       "coordinates":  [ -9.461805,13.037616 ]
    },
    "properties": {
    "amenity":"clinic",
    "name":"Centre de Santé SOS"
    }
  },
  {
    "type": "Feature",
    "geometry": {
       "type": "Point",
       "coordinates":  [ -9.455928,13.200891 ]
    },
    "properties": {
    "amenity":"hospital",
    "name":""
    }
  },
  {
    "type": "Feature",
    "geometry": {
       "type": "Point",
       "coordinates":  [ -9.454203,13.202365 ]
    },
    "properties": {
    "amenity":"hospital",
    "name":"cscom"
    }
  },
  {
    "type": "Feature",
    "geometry": {
       "type": "Point",
       "coordinates":  [ -9.431508,15.115525 ]
    },
    "properties": {
    "amenity":"doctors",
    "name":"Centre de Santé Fassoudebe"
    }
  },
  {
    "type": "Feature",
    "geometry": {
       "type": "Point",
       "coordinates":  [ -9.398405,12.968052 ]
    },
    "properties": {
    "amenity":"clinic",
    "name":"Centre de Santé Communautaire de Daféla"
    }
  },
  {
    "type": "Feature",
    "geometry": {
       "type": "Point",
       "coordinates":  [ -9.39535,13.056787 ]
    },
    "properties": {
    "amenity":"clinic",
    "name":"Centre de Santé Communautaire de Bendougouba"
    }
  },
  {
    "type": "Feature",
    "geometry": {
       "type": "Point",
       "coordinates":  [ -9.353582,12.810227 ]
    },
    "properties": {
    "amenity":"clinic",
    "name":"Centre de Santé Communautaire de Senko"
    }
  },
  {
    "type": "Feature",
    "geometry": {
       "type": "Point",
       "coordinates":  [ -9.3299,14.316076 ]
    },
    "properties": {
    "amenity":"clinic",
    "name":"Centre de Santé Communautaire Guessebine"
    }
  },
  {
    "type": "Feature",
    "geometry": {
       "type": "Point",
       "coordinates":  [ -9.228332,12.683199 ]
    },
    "properties": {
    "amenity":"clinic",
    "name":"Centre de Santé Communautaire de Sirakoro"
    }
  },
  {
    "type": "Feature",
    "geometry": {
       "type": "Point",
       "coordinates":  [ -9.189698,14.561026 ]
    },
    "properties": {
    "amenity":"doctors",
    "name":"Centre Sante Référence"
    }
  },
  {
    "type": "Feature",
    "geometry": {
       "type": "Point",
       "coordinates":  [ -9.189566,14.55403 ]
    },
    "properties": {
    "amenity":"pharmacy",
    "name":"Pharmacie Diogassan"
    }
  },
  {
    "type": "Feature",
    "geometry": {
       "type": "Point",
       "coordinates":  [ -9.188843,14.538626 ]
    },
    "properties": {
    "amenity":"clinic",
    "name":"Centre de Santé de Référence de Diéma"
    }
  },
  {
    "type": "Feature",
    "geometry": {
       "type": "Point",
       "coordinates":  [ -9.187685,14.547873 ]
    },
    "properties": {
    "amenity":"clinic",
    "name":"Centre de Santé"
    }
  },
  {
    "type": "Feature",
    "geometry": {
       "type": "Point",
       "coordinates":  [ -9.183408,14.533438 ]
    },
    "properties": {
    "amenity":"clinic",
    "name":"DIEMA clinic"
    }
  },
  {
    "type": "Feature",
    "geometry": {
       "type": "Point",
       "coordinates":  [ -9.183388,14.533333 ]
    },
    "properties": {
    "amenity":"clinic",
    "name":"CSCOM de Diéma CENTRAL"
    }
  },
  {
    "type": "Feature",
    "geometry": {
       "type": "Point",
       "coordinates":  [ -9.11969,13.10655 ]
    },
    "properties": {
    "amenity":"clinic",
    "name":"Centre de Santé Communautaire de Badinko"
    }
  },
  {
    "type": "Feature",
    "geometry": {
       "type": "Point",
       "coordinates":  [ -9.035442,14.309753 ]
    },
    "properties": {
    "amenity":"doctors",
    "name":"Centre de santé communautaire"
    }
  },
  {
    "type": "Feature",
    "geometry": {
       "type": "Point",
       "coordinates":  [ -9.015209,14.495168 ]
    },
    "properties": {
    "amenity":"doctors",
    "name":"Centre de Santé"
    }
  },
  {
    "type": "Feature",
    "geometry": {
       "type": "Point",
       "coordinates":  [ -8.990063,12.95812 ]
    },
    "properties": {
    "amenity":"clinic",
    "name":"Centre de Santé Communautaire de Sébékoro"
    }
  },
  {
    "type": "Feature",
    "geometry": {
       "type": "Point",
       "coordinates":  [ -8.93799,12.59932 ]
    },
    "properties": {
    "amenity":"clinic",
    "name":"Centre de Santé Communautaire de Goro"
    }
  },
  {
    "type": "Feature",
    "geometry": {
       "type": "Point",
       "coordinates":  [ -8.88563,14.463033 ]
    },
    "properties": {
    "amenity":"clinic",
    "name":"Centre de santé de Foulabougou"
    }
  },
  {
    "type": "Feature",
    "geometry": {
       "type": "Point",
       "coordinates":  [ -8.881333,12.951335 ]
    },
    "properties": {
    "amenity":"clinic",
    "name":"Centre de Santé Communautaire de Kassaro"
    }
  },
  {
    "type": "Feature",
    "geometry": {
       "type": "Point",
       "coordinates":  [ -8.877925,12.411577 ]
    },
    "properties": {
    "amenity":"clinic",
    "name":"Centre de Santé Communautaire de Niouma Makana"
    }
  },
  {
    "type": "Feature",
    "geometry": {
       "type": "Point",
       "coordinates":  [ -8.861936,13.400824 ]
    },
    "properties": {
    "amenity":"hospital",
    "name":"CSCOM de Madina"
    }
  },
  {
    "type": "Feature",
    "geometry": {
       "type": "Point",
       "coordinates":  [ -8.85478,12.23193 ]
    },
    "properties": {
    "amenity":"clinic",
    "name":"Centre de Santé Communautaire de Balan-Bakama"
    }
  },
  {
    "type": "Feature",
    "geometry": {
       "type": "Point",
       "coordinates":  [ -8.831341,13.130269 ]
    },
    "properties": {
    "amenity":"doctors",
    "name":"Centre de Santé Communautaire de Guénikoro"
    }
  },
  {
    "type": "Feature",
    "geometry": {
       "type": "Point",
       "coordinates":  [ -8.753013,11.643592 ]
    },
    "properties": {
    "amenity":"hospital",
    "name":"CSCOM de Dioulafoundo"
    }
  },
  {
    "type": "Feature",
    "geometry": {
       "type": "Point",
       "coordinates":  [ -8.738211,12.434685 ]
    },
    "properties": {
    "amenity":"clinic",
    "name":"Centre de Santé Communautaire de Sandama"
    }
  },
  {
    "type": "Feature",
    "geometry": {
       "type": "Point",
       "coordinates":  [ -8.713579,11.679495 ]
    },
    "properties": {
    "amenity":"doctors",
    "name":"Centre de Santé Communautaire de Tombola"
    }
  },
  {
    "type": "Feature",
    "geometry": {
       "type": "Point",
       "coordinates":  [ -8.695719,11.689413 ]
    },
    "properties": {
    "amenity":"doctors",
    "name":"Centre de Santé Communautaire de Danga"
    }
  },
  {
    "type": "Feature",
    "geometry": {
       "type": "Point",
       "coordinates":  [ -8.675762,11.716775 ]
    },
    "properties": {
    "amenity":"pharmacy",
    "name":""
    }
  },
  {
    "type": "Feature",
    "geometry": {
       "type": "Point",
       "coordinates":  [ -8.675574,11.716834 ]
    },
    "properties": {
    "amenity":"doctors",
    "name":"Centre de Santé Communautaire de Banancoro"
    }
  },
  {
    "type": "Feature",
    "geometry": {
       "type": "Point",
       "coordinates":  [ -8.652123,11.676802 ]
    },
    "properties": {
    "amenity":"pharmacy",
    "name":""
    }
  },
  {
    "type": "Feature",
    "geometry": {
       "type": "Point",
       "coordinates":  [ -8.65181,11.676543 ]
    },
    "properties": {
    "amenity":"doctors",
    "name":"Centre de Santé Communautaire de Samaya"
    }
  },
  {
    "type": "Feature",
    "geometry": {
       "type": "Point",
       "coordinates":  [ -8.64008,11.58342 ]
    },
    "properties": {
    "amenity":"clinic",
    "name":"Centre de Santé Communautaire de Tombola"
    }
  },
  {
    "type": "Feature",
    "geometry": {
       "type": "Point",
       "coordinates":  [ -8.63319,12.226349 ]
    },
    "properties": {
    "amenity":"clinic",
    "name":"Centre de Santé Communautaire de Naréna"
    }
  },
  {
    "type": "Feature",
    "geometry": {
       "type": "Point",
       "coordinates":  [ -8.620554,11.767318 ]
    },
    "properties": {
    "amenity":"clinic",
    "name":"Centre de Santé Communautaire de Kéniégoué"
    }
  },
  {
    "type": "Feature",
    "geometry": {
       "type": "Point",
       "coordinates":  [ -8.6181,12.03718 ]
    },
    "properties": {
    "amenity":"clinic",
    "name":"Centre de Santé Communautaire de Kéniéba-Kangaba"
    }
  },
  {
    "type": "Feature",
    "geometry": {
       "type": "Point",
       "coordinates":  [ -8.6158,11.85074 ]
    },
    "properties": {
    "amenity":"clinic",
    "name":"Centre de Santé Communautaire de Salamale"
    }
  },
  {
    "type": "Feature",
    "geometry": {
       "type": "Point",
       "coordinates":  [ -8.602472,11.602018 ]
    },
    "properties": {
    "amenity":"doctors",
    "name":"Dispensaire de Niaouleni"
    }
  },
  {
    "type": "Feature",
    "geometry": {
       "type": "Point",
       "coordinates":  [ -8.602431,11.601858 ]
    },
    "properties": {
    "amenity":"pharmacy",
    "name":"Pharmacie du CSCOM de Niouleni"
    }
  },
  {
    "type": "Feature",
    "geometry": {
       "type": "Point",
       "coordinates":  [ -8.600804,11.602436 ]
    },
    "properties": {
    "amenity":"doctors",
    "name":"Centre de Santé Communautaire de Niouleni"
    }
  },
  {
    "type": "Feature",
    "geometry": {
       "type": "Point",
       "coordinates":  [ -8.572117,12.884498 ]
    },
    "properties": {
    "amenity":"pharmacy",
    "name":"Pharmacie TATA"
    }
  },
  {
    "type": "Feature",
    "geometry": {
       "type": "Point",
       "coordinates":  [ -8.549632,11.496293 ]
    },
    "properties": {
    "amenity":"doctors",
    "name":"Case de santéi"
    }
  },
  {
    "type": "Feature",
    "geometry": {
       "type": "Point",
       "coordinates":  [ -8.548627,11.495121 ]
    },
    "properties": {
    "amenity":"hospital",
    "name":"Infirmerie de Sananfara"
    }
  },
  {
    "type": "Feature",
    "geometry": {
       "type": "Point",
       "coordinates":  [ -8.525206,12.132003 ]
    },
    "properties": {
    "amenity":"clinic",
    "name":"Centre de Santé Communautaire de Karan"
    }
  },
  {
    "type": "Feature",
    "geometry": {
       "type": "Point",
       "coordinates":  [ -8.522863,11.148277 ]
    },
    "properties": {
    "amenity":"clinic",
    "name":"Centre de Santé Communautaire de Guelelenkoro"
    }
  },
  {
    "type": "Feature",
    "geometry": {
       "type": "Point",
       "coordinates":  [ -8.4711,12.68138 ]
    },
    "properties": {
    "amenity":"clinic",
    "name":"Centre de Santé Communautaire de Nana Kenieba"
    }
  },
  {
    "type": "Feature",
    "geometry": {
       "type": "Point",
       "coordinates":  [ -8.461464,12.850867 ]
    },
    "properties": {
    "amenity":"clinic",
    "name":"Centre de Santé Communautaire de Neguela"
    }
  },
  {
    "type": "Feature",
    "geometry": {
       "type": "Point",
       "coordinates":  [ -8.427786,11.608887 ]
    },
    "properties": {
    "amenity":"pharmacy",
    "name":"Dépôt Traoréla"
    }
  },
  {
    "type": "Feature",
    "geometry": {
       "type": "Point",
       "coordinates":  [ -8.415135,11.940114 ]
    },
    "properties": {
    "amenity":"clinic",
    "name":"Centre de Santé Communautaire de Kangaba Central"
    }
  },
  {
    "type": "Feature",
    "geometry": {
       "type": "Point",
       "coordinates":  [ -8.413661,11.941132 ]
    },
    "properties": {
    "amenity":"clinic",
    "name":"Centre de Santé de Référence de Kangaba"
    }
  },
  {
    "type": "Feature",
    "geometry": {
       "type": "Point",
       "coordinates":  [ -8.378476,13.692249 ]
    },
    "properties": {
    "amenity":"doctors",
    "name":"CSCOM Sebecoro 1"
    }
  },
  {
    "type": "Feature",
    "geometry": {
       "type": "Point",
       "coordinates":  [ -8.373959,15.201686 ]
    },
    "properties": {
    "amenity":"clinic",
    "name":"CSCOM de BALLE ? Where?"
    }
  },
  {
    "type": "Feature",
    "geometry": {
       "type": "Point",
       "coordinates":  [ -8.368,11.13 ]
    },
    "properties": {
    "amenity":"clinic",
    "name":"Centre de Santé Communautaire de Fougatié"
    }
  },
  {
    "type": "Feature",
    "geometry": {
       "type": "Point",
       "coordinates":  [ -8.342707,12.377169 ]
    },
    "properties": {
    "amenity":"pharmacy",
    "name":"Pharmacie Lafia de Siby"
    }
  },
  {
    "type": "Feature",
    "geometry": {
       "type": "Point",
       "coordinates":  [ -8.34103,11.851 ]
    },
    "properties": {
    "amenity":"clinic",
    "name":"Centre de Santé Communautaire de Figuiratomo"
    }
  },
  {
    "type": "Feature",
    "geometry": {
       "type": "Point",
       "coordinates":  [ -8.339104,11.743166 ]
    },
    "properties": {
    "amenity":"clinic",
    "name":"Centre de Santé Communautaire de Séléfougou"
    }
  },
  {
    "type": "Feature",
    "geometry": {
       "type": "Point",
       "coordinates":  [ -8.339016,12.37805 ]
    },
    "properties": {
    "amenity":"pharmacy",
    "name":"Depôt de Pharmacie de Siby"
    }
  },
  {
    "type": "Feature",
    "geometry": {
       "type": "Point",
       "coordinates":  [ -8.338187,13.135816 ]
    },
    "properties": {
    "amenity":"clinic",
    "name":"Centre de Santé Communautaire de Faladié"
    }
  },
  {
    "type": "Feature",
    "geometry": {
       "type": "Point",
       "coordinates":  [ -8.333796,12.375794 ]
    },
    "properties": {
    "amenity":"clinic",
    "name":"Centre de Santé Communautaire de Siby"
    }
  },
  {
    "type": "Feature",
    "geometry": {
       "type": "Point",
       "coordinates":  [ -8.332,11.47 ]
    },
    "properties": {
    "amenity":"clinic",
    "name":"Centre de Santé Communautaire de Tagan"
    }
  },
  {
    "type": "Feature",
    "geometry": {
       "type": "Point",
       "coordinates":  [ -8.311748,11.383521 ]
    },
    "properties": {
    "amenity":"clinic",
    "name":"Centre de Santé Communautaire de Faraba"
    }
  },
  {
    "type": "Feature",
    "geometry": {
       "type": "Point",
       "coordinates":  [ -8.309832,13.22043 ]
    },
    "properties": {
    "amenity":"clinic",
    "name":"Centre de Santé Communautaire de Daban"
    }
  },
  {
    "type": "Feature",
    "geometry": {
       "type": "Point",
       "coordinates":  [ -8.306218,11.283928 ]
    },
    "properties": {
    "amenity":"clinic",
    "name":"Centre de Santé Communautaire de Diarani"
    }
  },
  {
    "type": "Feature",
    "geometry": {
       "type": "Point",
       "coordinates":  [ -8.301602,11.279316 ]
    },
    "properties": {
    "amenity":"hospital",
    "name":"CSCOM DE DIARANI"
    }
  },
  {
    "type": "Feature",
    "geometry": {
       "type": "Point",
       "coordinates":  [ -8.290636,12.008816 ]
    },
    "properties": {
    "amenity":"clinic",
    "name":"Centre de Santé Communautaire de Kourouba"
    }
  },
  {
    "type": "Feature",
    "geometry": {
       "type": "Point",
       "coordinates":  [ -8.276477,12.760214 ]
    },
    "properties": {
    "amenity":"clinic",
    "name":"Centre de Santé Communautaire de Dombila"
    }
  },
  {
    "type": "Feature",
    "geometry": {
       "type": "Point",
       "coordinates":  [ -8.265182,12.206162 ]
    },
    "properties": {
    "amenity":"clinic",
    "name":"Centre de Santé Communautaire de Bancoumana"
    }
  },
  {
    "type": "Feature",
    "geometry": {
       "type": "Point",
       "coordinates":  [ -8.264016,11.317992 ]
    },
    "properties": {
    "amenity":"clinic",
    "name":"Centre de Santé Communautaire de Siékorolé"
    }
  },
  {
    "type": "Feature",
    "geometry": {
       "type": "Point",
       "coordinates":  [ -8.2454,13.503373 ]
    },
    "properties": {
    "amenity":"clinic",
    "name":"Centre de Santé Communautaire de Guihoyo"
    }
  },
  {
    "type": "Feature",
    "geometry": {
       "type": "Point",
       "coordinates":  [ -8.243447,11.641923 ]
    },
    "properties": {
    "amenity":"clinic",
    "name":"Centre de Santé de Référence de Sélingué"
    }
  },
  {
    "type": "Feature",
    "geometry": {
       "type": "Point",
       "coordinates":  [ -8.243051,12.801264 ]
    },
    "properties": {
    "amenity":"clinic",
    "name":"Centre de Santé Communautaire de Dio Gare"
    }
  },
  {
    "type": "Feature",
    "geometry": {
       "type": "Point",
       "coordinates":  [ -8.243,11.64 ]
    },
    "properties": {
    "amenity":"clinic",
    "name":"Centre de Santé Communautaire de Binko"
    }
  },
  {
    "type": "Feature",
    "geometry": {
       "type": "Point",
       "coordinates":  [ -8.234028,13.264934 ]
    },
    "properties": {
    "amenity":"clinic",
    "name":"Centre de Santé Communautaire de Niokona"
    }
  },
  {
    "type": "Feature",
    "geometry": {
       "type": "Point",
       "coordinates":  [ -8.234,11.23 ]
    },
    "properties": {
    "amenity":"clinic",
    "name":"Centre de Santé Communautaire de Goualala"
    }
  },
  {
    "type": "Feature",
    "geometry": {
       "type": "Point",
       "coordinates":  [ -8.233365,12.131294 ]
    },
    "properties": {
    "amenity":"clinic",
    "name":"Centre de Santé Communautaire de Niagadina"
    }
  },
  {
    "type": "Feature",
    "geometry": {
       "type": "Point",
       "coordinates":  [ -8.227992,11.924718 ]
    },
    "properties": {
    "amenity":"clinic",
    "name":"Centre de Santé Communautaire de Manincoura"
    }
  },
  {
    "type": "Feature",
    "geometry": {
       "type": "Point",
       "coordinates":  [ -8.215,11.03 ]
    },
    "properties": {
    "amenity":"clinic",
    "name":"Centre de Santé Communautaire de Badogo"
    }
  },
  {
    "type": "Feature",
    "geometry": {
       "type": "Point",
       "coordinates":  [ -8.209267,10.597013 ]
    },
    "properties": {
    "amenity":"clinic",
    "name":"Centre de Santé Communautaire de Niessoumala"
    }
  },
  {
    "type": "Feature",
    "geometry": {
       "type": "Point",
       "coordinates":  [ -8.206364,13.056017 ]
    },
    "properties": {
    "amenity":"clinic",
    "name":"Centre de Santé Communautaire de Torodo"
    }
  },
  {
    "type": "Feature",
    "geometry": {
       "type": "Point",
       "coordinates":  [ -8.201048,11.641243 ]
    },
    "properties": {
    "amenity":"clinic",
    "name":"Centre de Santé Communautaire de Kangaré"
    }
  },
  {
    "type": "Feature",
    "geometry": {
       "type": "Point",
       "coordinates":  [ -8.198198,13.921064 ]
    },
    "properties": {
    "amenity":"hospital",
    "name":"CSCOM Mercoya"
    }
  },
  {
    "type": "Feature",
    "geometry": {
       "type": "Point",
       "coordinates":  [ -8.196151,10.786245 ]
    },
    "properties": {
    "amenity":"clinic",
    "name":"Centre de Santé Communautaire de Kalana"
    }
  },
  {
    "type": "Feature",
    "geometry": {
       "type": "Point",
       "coordinates":  [ -8.185893,11.647073 ]
    },
    "properties": {
    "amenity":"pharmacy",
    "name":"Pharmacie Baminata"
    }
  },
  {
    "type": "Feature",
    "geometry": {
       "type": "Point",
       "coordinates":  [ -8.184486,11.547829 ]
    },
    "properties": {
    "amenity":"clinic",
    "name":"Centre de Santé Communautaire de Carriere"
    }
  },
  {
    "type": "Feature",
    "geometry": {
       "type": "Point",
       "coordinates":  [ -8.183441,12.250224 ]
    },
    "properties": {
    "amenity":"clinic",
    "name":"Centre de Santé Communautaire de Koursalé"
    }
  },
  {
    "type": "Feature",
    "geometry": {
       "type": "Point",
       "coordinates":  [ -8.181827,12.707469 ]
    },
    "properties": {
    "amenity":"clinic",
    "name":"Centre de Santé Communautaire de Doubabougou Kati"
    }
  },
  {
    "type": "Feature",
    "geometry": {
       "type": "Point",
       "coordinates":  [ -8.176483,12.951909 ]
    },
    "properties": {
    "amenity":"doctors",
    "name":"Centre medical"
    }
  },
  {
    "type": "Feature",
    "geometry": {
       "type": "Point",
       "coordinates":  [ -8.175573,13.739488 ]
    },
    "properties": {
    "amenity":"doctors",
    "name":"CSCOM Touzana"
    }
  },
  {
    "type": "Feature",
    "geometry": {
       "type": "Point",
       "coordinates":  [ -8.174278,12.952138 ]
    },
    "properties": {
    "amenity":"clinic",
    "name":"Centre de Santé Communautaire de Kalifabougou"
    }
  },
  {
    "type": "Feature",
    "geometry": {
       "type": "Point",
       "coordinates":  [ -8.170098,12.590204 ]
    },
    "properties": {
    "amenity":"doctors",
    "name":"Kati"
    }
  },
  {
    "type": "Feature",
    "geometry": {
       "type": "Point",
       "coordinates":  [ -8.16327,12.39935 ]
    },
    "properties": {
    "amenity":"clinic",
    "name":"Centre de Santé Communautaire de Djoliba"
    }
  },
  {
    "type": "Feature",
    "geometry": {
       "type": "Point",
       "coordinates":  [ -8.1609,11.584294 ]
    },
    "properties": {
    "amenity":"clinic",
    "name":"CSCOM de KANGARE"
    }
  },
  {
    "type": "Feature",
    "geometry": {
       "type": "Point",
       "coordinates":  [ -8.160578,12.790418 ]
    },
    "properties": {
    "amenity":"doctors",
    "name":"Centre de Santé"
    }
  },
  {
    "type": "Feature",
    "geometry": {
       "type": "Point",
       "coordinates":  [ -8.155885,12.777793 ]
    },
    "properties": {
    "amenity":"clinic",
    "name":"Centre de Santé Communautaire de Diago"
    }
  },
  {
    "type": "Feature",
    "geometry": {
       "type": "Point",
       "coordinates":  [ -8.152544,11.175153 ]
    },
    "properties": {
    "amenity":"clinic",
    "name":"Centre de Santé de Référence de Yanfolila"
    }
  },
  {
    "type": "Feature",
    "geometry": {
       "type": "Point",
       "coordinates":  [ -8.152256,13.606617 ]
    },
    "properties": {
    "amenity":"doctors",
    "name":"CSCOM Seriwala"
    }
  },
  {
    "type": "Feature",
    "geometry": {
       "type": "Point",
       "coordinates":  [ -8.1519,11.174579 ]
    },
    "properties": {
    "amenity":"clinic",
    "name":"Centre de Santé Communautaire de Yanfolila Central"
    }
  },
  {
    "type": "Feature",
    "geometry": {
       "type": "Point",
       "coordinates":  [ -8.150738,11.173607 ]
    },
    "properties": {
    "amenity":"clinic",
    "name":"CMIE- Yanfolila"
    }
  },
  {
    "type": "Feature",
    "geometry": {
       "type": "Point",
       "coordinates":  [ -8.146192,11.905244 ]
    },
    "properties": {
    "amenity":"clinic",
    "name":"Centre de Santé Communautaire de Faraba-Kati"
    }
  },
  {
    "type": "Feature",
    "geometry": {
       "type": "Point",
       "coordinates":  [ -8.136878,12.520586 ]
    },
    "properties": {
    "amenity":"doctors",
    "name":"doctors Médical KOULOUBA"
    }
  },
  {
    "type": "Feature",
    "geometry": {
       "type": "Point",
       "coordinates":  [ -8.131303,12.19346 ]
    },
    "properties": {
    "amenity":"clinic",
    "name":"Centre de Santé Communautaire de Dangassa"
    }
  },
  {
    "type": "Feature",
    "geometry": {
       "type": "Point",
       "coordinates":  [ -8.128973,12.676105 ]
    },
    "properties": {
    "amenity":"clinic",
    "name":"Centre de Santé Communautaire de Malibougou"
    }
  },
  {
    "type": "Feature",
    "geometry": {
       "type": "Point",
       "coordinates":  [ -8.128966,12.684025 ]
    },
    "properties": {
    "amenity":"clinic",
    "name":"PMI"
    }
  },
  {
    "type": "Feature",
    "geometry": {
       "type": "Point",
       "coordinates":  [ -8.128368,10.961417 ]
    },
    "properties": {
    "amenity":"clinic",
    "name":"Centre de Santé Communautaire de Flabougoula"
    }
  },
  {
    "type": "Feature",
    "geometry": {
       "type": "Point",
       "coordinates":  [ -8.123442,12.454143 ]
    },
    "properties": {
    "amenity":"pharmacy",
    "name":"Pharmacie Ba Saran"
    }
  },
  {
    "type": "Feature",
    "geometry": {
       "type": "Point",
       "coordinates":  [ -8.121667,12.456944 ]
    },
    "properties": {
    "amenity":"clinic",
    "name":"Centre de Santé Communautaire de Farabana"
    }
  },
  {
    "type": "Feature",
    "geometry": {
       "type": "Point",
       "coordinates":  [ -8.10164,11.85031 ]
    },
    "properties": {
    "amenity":"clinic",
    "name":"Centre de Santé Communautaire de Tiakadougou Dialacoro"
    }
  },
  {
    "type": "Feature",
    "geometry": {
       "type": "Point",
       "coordinates":  [ -8.094929,12.753691 ]
    },
    "properties": {
    "amenity":"pharmacy",
    "name":"Officine Kouroukan Fouga"
    }
  },
  {
    "type": "Feature",
    "geometry": {
       "type": "Point",
       "coordinates":  [ -8.090472,13.88528 ]
    },
    "properties": {
    "amenity":"doctors",
    "name":"Centre de santé communautaire Didieni"
    }
  },
  {
    "type": "Feature",
    "geometry": {
       "type": "Point",
       "coordinates":  [ -8.090229,13.884971 ]
    },
    "properties": {
    "amenity":"doctors",
    "name":"Centre de santé Didieni"
    }
  },
  {
    "type": "Feature",
    "geometry": {
       "type": "Point",
       "coordinates":  [ -8.088712,12.567865 ]
    },
    "properties": {
    "amenity":"pharmacy",
    "name":"Pharmacie Faran dabo"
    }
  },
  {
    "type": "Feature",
    "geometry": {
       "type": "Point",
       "coordinates":  [ -8.086111,12.568333 ]
    },
    "properties": {
    "amenity":"clinic",
    "name":"Centre de Santé Communautaire de Kanadjiguila"
    }
  },
  {
    "type": "Feature",
    "geometry": {
       "type": "Point",
       "coordinates":  [ -8.085843,12.543034 ]
    },
    "properties": {
    "amenity":"clinic",
    "name":"Centre de Santé Communautaire de Ouizzindougou"
    }
  },
  {
    "type": "Feature",
    "geometry": {
       "type": "Point",
       "coordinates":  [ -8.08279,12.68354 ]
    },
    "properties": {
    "amenity":"clinic",
    "name":"Centre de Santé Communautaire de Sananfara"
    }
  },
  {
    "type": "Feature",
    "geometry": {
       "type": "Point",
       "coordinates":  [ -8.072899,12.578978 ]
    },
    "properties": {
    "amenity":"clinic",
    "name":"Clinique Medicale Carrefour Manding"
    }
  },
  {
    "type": "Feature",
    "geometry": {
       "type": "Point",
       "coordinates":  [ -8.072376,12.571015 ]
    },
    "properties": {
    "amenity":"pharmacy",
    "name":"Pharmacie Officine Fofana"
    }
  },
  {
    "type": "Feature",
    "geometry": {
       "type": "Point",
       "coordinates":  [ -8.072275,12.580757 ]
    },
    "properties": {
    "amenity":"dentist",
    "name":"Ba Sanaba Keita"
    }
  },
  {
    "type": "Feature",
    "geometry": {
       "type": "Point",
       "coordinates":  [ -8.072248,12.580729 ]
    },
    "properties": {
    "amenity":"doctors",
    "name":"Les Etoiles du Mandé"
    }
  },
  {
    "type": "Feature",
    "geometry": {
       "type": "Point",
       "coordinates":  [ -8.07213,12.76786 ]
    },
    "properties": {
    "amenity":"clinic",
    "name":"Centre de Santé Communautaire de Farada"
    }
  },
  {
    "type": "Feature",
    "geometry": {
       "type": "Point",
       "coordinates":  [ -8.071168,12.56693 ]
    },
    "properties": {
    "amenity":"doctors",
    "name":"Cabinet de Consultations"
    }
  },
  {
    "type": "Feature",
    "geometry": {
       "type": "Point",
       "coordinates":  [ -8.07092,12.5829 ]
    },
    "properties": {
    "amenity":"clinic",
    "name":"CSCOM de Sibiribougou"
    }
  },
  {
    "type": "Feature",
    "geometry": {
       "type": "Point",
       "coordinates":  [ -8.070754,12.580981 ]
    },
    "properties": {
    "amenity":"doctors",
    "name":"Cabinet Médical Ami des Bébés"
    }
  },
  {
    "type": "Feature",
    "geometry": {
       "type": "Point",
       "coordinates":  [ -8.07067,12.583 ]
    },
    "properties": {
    "amenity":"pharmacy",
    "name":"Phamacie Lothiozan"
    }
  },
  {
    "type": "Feature",
    "geometry": {
       "type": "Point",
       "coordinates":  [ -8.07007,12.68019 ]
    },
    "properties": {
    "amenity":"pharmacy",
    "name":"Officine NADJA"
    }
  },
  {
    "type": "Feature",
    "geometry": {
       "type": "Point",
       "coordinates":  [ -8.069848,12.751203 ]
    },
    "properties": {
    "amenity":"clinic",
    "name":"Centre de Santé Communautaire de Kati Coco"
    }
  },
  {
    "type": "Feature",
    "geometry": {
       "type": "Point",
       "coordinates":  [ -8.067571,12.757552 ]
    },
    "properties": {
    "amenity":"pharmacy",
    "name":"Pharmacie Kadia Diallo"
    }
  },
  {
    "type": "Feature",
    "geometry": {
       "type": "Point",
       "coordinates":  [ -8.067249,12.586079 ]
    },
    "properties": {
    "amenity":"pharmacy",
    "name":""
    }
  },
  {
    "type": "Feature",
    "geometry": {
       "type": "Point",
       "coordinates":  [ -8.065615,12.739945 ]
    },
    "properties": {
    "amenity":"pharmacy",
    "name":"Dialpharma"
    }
  },
  {
    "type": "Feature",
    "geometry": {
       "type": "Point",
       "coordinates":  [ -8.06174,12.56694 ]
    },
    "properties": {
    "amenity":"clinic",
    "name":"Centre de Santé Communautaire ASACOSEKASI"
    }
  },
  {
    "type": "Feature",
    "geometry": {
       "type": "Point",
       "coordinates":  [ -8.060095,12.593657 ]
    },
    "properties": {
    "amenity":"pharmacy",
    "name":"Pharmacie Sébé marché"
    }
  },
  {
    "type": "Feature",
    "geometry": {
       "type": "Point",
       "coordinates":  [ -8.058182,12.551684 ]
    },
    "properties": {
    "amenity":"pharmacy",
    "name":"Pharmacie Domo"
    }
  },
  {
    "type": "Feature",
    "geometry": {
       "type": "Point",
       "coordinates":  [ -8.058103,12.595492 ]
    },
    "properties": {
    "amenity":"doctors",
    "name":"Cabinet médical"
    }
  },
  {
    "type": "Feature",
    "geometry": {
       "type": "Point",
       "coordinates":  [ -8.0577,12.595574 ]
    },
    "properties": {
    "amenity":"dentist",
    "name":"Cabinet Dentaire Paul"
    }
  },
  {
    "type": "Feature",
    "geometry": {
       "type": "Point",
       "coordinates":  [ -8.057654,12.755228 ]
    },
    "properties": {
    "amenity":"pharmacy",
    "name":"Pharmacie le marabout"
    }
  },
  {
    "type": "Feature",
    "geometry": {
       "type": "Point",
       "coordinates":  [ -8.055409,12.561517 ]
    },
    "properties": {
    "amenity":"clinic",
    "name":"CSCOM de Kabalabougou"
    }
  },
  {
    "type": "Feature",
    "geometry": {
       "type": "Point",
       "coordinates":  [ -8.054451,12.599435 ]
    },
    "properties": {
    "amenity":"pharmacy",
    "name":"Bibi Pharm"
    }
  },
  {
    "type": "Feature",
    "geometry": {
       "type": "Point",
       "coordinates":  [ -8.05341,12.629928 ]
    },
    "properties": {
    "amenity":"hospital",
    "name":"CSCOM de Taliko Bougoudani"
    }
  },
  {
    "type": "Feature",
    "geometry": {
       "type": "Point",
       "coordinates":  [ -8.053286,12.600177 ]
    },
    "properties": {
    "amenity":"clinic",
    "name":"Clinique Medicale Sept"
    }
  },
  {
    "type": "Feature",
    "geometry": {
       "type": "Point",
       "coordinates":  [ -8.051415,12.585432 ]
    },
    "properties": {
    "amenity":"clinic",
    "name":"Centre de Santé Communautaire ASACOSEK"
    }
  },
  {
    "type": "Feature",
    "geometry": {
       "type": "Point",
       "coordinates":  [ -8.051,11.07 ]
    },
    "properties": {
    "amenity":"clinic",
    "name":"Centre de Santé Communautaire de Lontola"
    }
  },
  {
    "type": "Feature",
    "geometry": {
       "type": "Point",
       "coordinates":  [ -8.050168,12.56713 ]
    },
    "properties": {
    "amenity":"clinic",
    "name":"Centre de Santé Communautaire de Kalabanbougou"
    }
  },
  {
    "type": "Feature",
    "geometry": {
       "type": "Point",
       "coordinates":  [ -8.05006,12.61689 ]
    },
    "properties": {
    "amenity":"clinic",
    "name":"Centre de Santé Communautaire ASACOLA B5"
    }
  },
  {
    "type": "Feature",
    "geometry": {
       "type": "Point",
       "coordinates":  [ -8.049825,12.604397 ]
    },
    "properties": {
    "amenity":"pharmacy",
    "name":"Prospérité"
    }
  },
  {
    "type": "Feature",
    "geometry": {
       "type": "Point",
       "coordinates":  [ -8.049382,12.604518 ]
    },
    "properties": {
    "amenity":"pharmacy",
    "name":"Phamacie la Prospérité"
    }
  },
  {
    "type": "Feature",
    "geometry": {
       "type": "Point",
       "coordinates":  [ -8.049343,12.611443 ]
    },
    "properties": {
    "amenity":"doctors",
    "name":""
    }
  },
  {
    "type": "Feature",
    "geometry": {
       "type": "Point",
       "coordinates":  [ -8.046221,12.607051 ]
    },
    "properties": {
    "amenity":"dentist",
    "name":"Cabinet Dentaire Bereté"
    }
  },
  {
    "type": "Feature",
    "geometry": {
       "type": "Point",
       "coordinates":  [ -8.045313,12.610717 ]
    },
    "properties": {
    "amenity":"pharmacy",
    "name":"Pharmacie Tieba"
    }
  },
  {
    "type": "Feature",
    "geometry": {
       "type": "Point",
       "coordinates":  [ -8.044151,12.713931 ]
    },
    "properties": {
    "amenity":"pharmacy",
    "name":"Pharmacie Kéné Santé"
    }
  },
  {
    "type": "Feature",
    "geometry": {
       "type": "Point",
       "coordinates":  [ -8.044113,12.622172 ]
    },
    "properties": {
    "amenity":"pharmacy",
    "name":""
    }
  },
  {
    "type": "Feature",
    "geometry": {
       "type": "Point",
       "coordinates":  [ -8.043624,12.622585 ]
    },
    "properties": {
    "amenity":"doctors",
    "name":""
    }
  },
  {
    "type": "Feature",
    "geometry": {
       "type": "Point",
       "coordinates":  [ -8.043583,12.631912 ]
    },
    "properties": {
    "amenity":"pharmacy",
    "name":"Pharmacie M'PEO"
    }
  },
  {
    "type": "Feature",
    "geometry": {
       "type": "Point",
       "coordinates":  [ -8.042936,12.631881 ]
    },
    "properties": {
    "amenity":"clinic",
    "name":"Clinique Lafia"
    }
  },
  {
    "type": "Feature",
    "geometry": {
       "type": "Point",
       "coordinates":  [ -8.042284,12.525784 ]
    },
    "properties": {
    "amenity":"pharmacy",
    "name":""
    }
  },
  {
    "type": "Feature",
    "geometry": {
       "type": "Point",
       "coordinates":  [ -8.042204,12.630104 ]
    },
    "properties": {
    "amenity":"doctors",
    "name":"Centre de Santé de Réference de la Commune IV"
    }
  },
  {
    "type": "Feature",
    "geometry": {
       "type": "Point",
       "coordinates":  [ -8.041841,12.617565 ]
    },
    "properties": {
    "amenity":"clinic",
    "name":"Clinic Lac Télé 00223 20 29 29 63"
    }
  },
  {
    "type": "Feature",
    "geometry": {
       "type": "Point",
       "coordinates":  [ -8.041539,12.636139 ]
    },
    "properties": {
    "amenity":"pharmacy",
    "name":"Phamacie du Carrefour"
    }
  },
  {
    "type": "Feature",
    "geometry": {
       "type": "Point",
       "coordinates":  [ -8.04144,12.619197 ]
    },
    "properties": {
    "amenity":"pharmacy",
    "name":"ACI 2000"
    }
  },
  {
    "type": "Feature",
    "geometry": {
       "type": "Point",
       "coordinates":  [ -8.041023,12.972321 ]
    },
    "properties": {
    "amenity":"clinic",
    "name":"Centre de Santé Communautaire de Yélékébougou"
    }
  },
  {
    "type": "Feature",
    "geometry": {
       "type": "Point",
       "coordinates":  [ -8.04067,12.618047 ]
    },
    "properties": {
    "amenity":"doctors",
    "name":"Agence nationale d'assistance medicale"
    }
  },
  {
    "type": "Feature",
    "geometry": {
       "type": "Point",
       "coordinates":  [ -8.03859,13.589809 ]
    },
    "properties": {
    "amenity":"hospital",
    "name":"Centre de référence santé kolokani"
    }
  },
  {
    "type": "Feature",
    "geometry": {
       "type": "Point",
       "coordinates":  [ -8.038229,12.620991 ]
    },
    "properties": {
    "amenity":"pharmacy",
    "name":""
    }
  },
  {
    "type": "Feature",
    "geometry": {
       "type": "Point",
       "coordinates":  [ -8.036883,12.632935 ]
    },
    "properties": {
    "amenity":"clinic",
    "name":"Clinique Effica Santé"
    }
  },
  {
    "type": "Feature",
    "geometry": {
       "type": "Point",
       "coordinates":  [ -8.036284,12.642059 ]
    },
    "properties": {
    "amenity":"pharmacy",
    "name":"Pharmacie Kadidia Tolo"
    }
  },
  {
    "type": "Feature",
    "geometry": {
       "type": "Point",
       "coordinates":  [ -8.036275,13.572927 ]
    },
    "properties": {
    "amenity":"doctors",
    "name":"Centre de santé Kolokani Central"
    }
  },
  {
    "type": "Feature",
    "geometry": {
       "type": "Point",
       "coordinates":  [ -8.036121,12.642055 ]
    },
    "properties": {
    "amenity":"clinic",
    "name":"Clinic Horizon"
    }
  },
  {
    "type": "Feature",
    "geometry": {
       "type": "Point",
       "coordinates":  [ -8.036015,12.628583 ]
    },
    "properties": {
    "amenity":"pharmacy",
    "name":"Pharmacie Abdoulaye Ouologuem"
    }
  },
  {
    "type": "Feature",
    "geometry": {
       "type": "Point",
       "coordinates":  [ -8.03574,12.624999 ]
    },
    "properties": {
    "amenity":"pharmacy",
    "name":"Pharmacie le Renouveau"
    }
  },
  {
    "type": "Feature",
    "geometry": {
       "type": "Point",
       "coordinates":  [ -8.035574,12.621345 ]
    },
    "properties": {
    "amenity":"pharmacy",
    "name":"Pharmacie Saoudita"
    }
  },
  {
    "type": "Feature",
    "geometry": {
       "type": "Point",
       "coordinates":  [ -8.035177,12.627315 ]
    },
    "properties": {
    "amenity":"dentist",
    "name":"Dent Baco"
    }
  },
  {
    "type": "Feature",
    "geometry": {
       "type": "Point",
       "coordinates":  [ -8.035061,12.625713 ]
    },
    "properties": {
    "amenity":"dentist",
    "name":"Dentiste"
    }
  },
  {
    "type": "Feature",
    "geometry": {
       "type": "Point",
       "coordinates":  [ -8.03485,12.2164 ]
    },
    "properties": {
    "amenity":"clinic",
    "name":"Centre de Santé Communautaire de Baala"
    }
  },
  {
    "type": "Feature",
    "geometry": {
       "type": "Point",
       "coordinates":  [ -8.03472,13.571177 ]
    },
    "properties": {
    "amenity":"clinic",
    "name":"Centre de Santé de Référence de Kolokani"
    }
  },
  {
    "type": "Feature",
    "geometry": {
       "type": "Point",
       "coordinates":  [ -8.034459,13.571171 ]
    },
    "properties": {
    "amenity":"clinic",
    "name":"Centre de Santé Communautaire de Kolokani Central"
    }
  },
  {
    "type": "Feature",
    "geometry": {
       "type": "Point",
       "coordinates":  [ -8.034076,12.617849 ]
    },
    "properties": {
    "amenity":"pharmacy",
    "name":""
    }
  },
  {
    "type": "Feature",
    "geometry": {
       "type": "Point",
       "coordinates":  [ -8.034048,12.617815 ]
    },
    "properties": {
    "amenity":"pharmacy",
    "name":""
    }
  },
  {
    "type": "Feature",
    "geometry": {
       "type": "Point",
       "coordinates":  [ -8.033833,12.626203 ]
    },
    "properties": {
    "amenity":"doctors",
    "name":"Glopax"
    }
  },
  {
    "type": "Feature",
    "geometry": {
       "type": "Point",
       "coordinates":  [ -8.03359,12.65004 ]
    },
    "properties": {
    "amenity":"clinic",
    "name":"Centre de Santé Communautaire ASACOLABASAD"
    }
  },
  {
    "type": "Feature",
    "geometry": {
       "type": "Point",
       "coordinates":  [ -8.033573,12.646093 ]
    },
    "properties": {
    "amenity":"pharmacy",
    "name":"Pharmacie Saha"
    }
  },
  {
    "type": "Feature",
    "geometry": {
       "type": "Point",
       "coordinates":  [ -8.03348,12.63138 ]
    },
    "properties": {
    "amenity":"clinic",
    "name":"Centre de Santé Communautaire ASACOLA II"
    }
  },
  {
    "type": "Feature",
    "geometry": {
       "type": "Point",
       "coordinates":  [ -8.03347,12.616903 ]
    },
    "properties": {
    "amenity":"clinic",
    "name":"Centre de Santé de Référence de Commune 4"
    }
  },
  {
    "type": "Feature",
    "geometry": {
       "type": "Point",
       "coordinates":  [ -8.03341,12.61982 ]
    },
    "properties": {
    "amenity":"clinic",
    "name":"Centre de Santé Communautaire ASACOLA I"
    }
  },
  {
    "type": "Feature",
    "geometry": {
       "type": "Point",
       "coordinates":  [ -8.032884,12.64399 ]
    },
    "properties": {
    "amenity":"clinic",
    "name":"SISSMED Santé"
    }
  },
  {
    "type": "Feature",
    "geometry": {
       "type": "Point",
       "coordinates":  [ -8.03274,12.621371 ]
    },
    "properties": {
    "amenity":"clinic",
    "name":"Maroufou"
    }
  },
  {
    "type": "Feature",
    "geometry": {
       "type": "Point",
       "coordinates":  [ -8.032562,13.572188 ]
    },
    "properties": {
    "amenity":"doctors",
    "name":"doctors Médical CHINOIS"
    }
  },
  {
    "type": "Feature",
    "geometry": {
       "type": "Point",
       "coordinates":  [ -8.032537,12.6282 ]
    },
    "properties": {
    "amenity":"pharmacy",
    "name":"Phamacie Yattassaye"
    }
  },
  {
    "type": "Feature",
    "geometry": {
       "type": "Point",
       "coordinates":  [ -8.032474,12.644055 ]
    },
    "properties": {
    "amenity":"pharmacy",
    "name":"Pharmacie La Maternité"
    }
  },
  {
    "type": "Feature",
    "geometry": {
       "type": "Point",
       "coordinates":  [ -8.03245,12.66283 ]
    },
    "properties": {
    "amenity":"clinic",
    "name":"Centre de Santé Communautaire ASACODES"
    }
  },
  {
    "type": "Feature",
    "geometry": {
       "type": "Point",
       "coordinates":  [ -8.032124,12.647249 ]
    },
    "properties": {
    "amenity":"pharmacy",
    "name":"Pharmacie Sana"
    }
  },
  {
    "type": "Feature",
    "geometry": {
       "type": "Point",
       "coordinates":  [ -8.032087,12.625939 ]
    },
    "properties": {
    "amenity":"doctors",
    "name":"Médical Général Système( MS) 20232882"
    }
  },
  {
    "type": "Feature",
    "geometry": {
       "type": "Point",
       "coordinates":  [ -8.031957,12.618774 ]
    },
    "properties": {
    "amenity":"pharmacy",
    "name":""
    }
  },
  {
    "type": "Feature",
    "geometry": {
       "type": "Point",
       "coordinates":  [ -8.031649,12.556648 ]
    },
    "properties": {
    "amenity":"pharmacy",
    "name":"Pharmacie Officine Wassa"
    }
  },
  {
    "type": "Feature",
    "geometry": {
       "type": "Point",
       "coordinates":  [ -8.031556,12.639164 ]
    },
    "properties": {
    "amenity":"dentist",
    "name":"Cabinet dentaire"
    }
  },
  {
    "type": "Feature",
    "geometry": {
       "type": "Point",
       "coordinates":  [ -8.031456,12.643998 ]
    },
    "properties": {
    "amenity":"clinic",
    "name":"Maternité"
    }
  },
  {
    "type": "Feature",
    "geometry": {
       "type": "Point",
       "coordinates":  [ -8.031086,13.568476 ]
    },
    "properties": {
    "amenity":"clinic",
    "name":"KOLOKANI clinic"
    }
  },
  {
    "type": "Feature",
    "geometry": {
       "type": "Point",
       "coordinates":  [ -8.031057,12.564493 ]
    },
    "properties": {
    "amenity":"pharmacy",
    "name":"Pharmacie Sagadje"
    }
  },
  {
    "type": "Feature",
    "geometry": {
       "type": "Point",
       "coordinates":  [ -8.030851,12.623966 ]
    },
    "properties": {
    "amenity":"pharmacy",
    "name":"Pharmacie Bougie Ba"
    }
  },
  {
    "type": "Feature",
    "geometry": {
       "type": "Point",
       "coordinates":  [ -8.03055,12.89426 ]
    },
    "properties": {
    "amenity":"clinic",
    "name":"Centre de Santé Communautaire de Sonikegny"
    }
  },
  {
    "type": "Feature",
    "geometry": {
       "type": "Point",
       "coordinates":  [ -8.028927,12.591361 ]
    },
    "properties": {
    "amenity":"pharmacy",
    "name":""
    }
  },
  {
    "type": "Feature",
    "geometry": {
       "type": "Point",
       "coordinates":  [ -8.028917,12.656778 ]
    },
    "properties": {
    "amenity":"hospital",
    "name":"Ophtalmo Keita Vision"
    }
  },
  {
    "type": "Feature",
    "geometry": {
       "type": "Point",
       "coordinates":  [ -8.028673,12.638226 ]
    },
    "properties": {
    "amenity":"pharmacy",
    "name":"Pharmacie La Croix Verte"
    }
  },
  {
    "type": "Feature",
    "geometry": {
       "type": "Point",
       "coordinates":  [ -8.028307,12.6213 ]
    },
    "properties": {
    "amenity":"hospital",
    "name":"Hôpital de Dermatologie de Bamako- ex-institut Marchoux"
    }
  },
  {
    "type": "Feature",
    "geometry": {
       "type": "Point",
       "coordinates":  [ -8.027955,12.640727 ]
    },
    "properties": {
    "amenity":"pharmacy",
    "name":"Pharmacie Furaso"
    }
  },
  {
    "type": "Feature",
    "geometry": {
       "type": "Point",
       "coordinates":  [ -8.027742,12.638149 ]
    },
    "properties": {
    "amenity":"clinic",
    "name":"KURESEL DOKTORLAR-MALI Clinique Ophtamologique"
    }
  },
  {
    "type": "Feature",
    "geometry": {
       "type": "Point",
       "coordinates":  [ -8.027657,13.571746 ]
    },
    "properties": {
    "amenity":"pharmacy",
    "name":"Dépôt de PHARMACIE DJIGUIYA"
    }
  },
  {
    "type": "Feature",
    "geometry": {
       "type": "Point",
       "coordinates":  [ -8.027569,12.652123 ]
    },
    "properties": {
    "amenity":"hospital",
    "name":"Clinique Farako"
    }
  },
  {
    "type": "Feature",
    "geometry": {
       "type": "Point",
       "coordinates":  [ -8.027389,12.651899 ]
    },
    "properties": {
    "amenity":"pharmacy",
    "name":""
    }
  },
  {
    "type": "Feature",
    "geometry": {
       "type": "Point",
       "coordinates":  [ -8.027382,12.595754 ]
    },
    "properties": {
    "amenity":"pharmacy",
    "name":"Para Pharmacie"
    }
  },
  {
    "type": "Feature",
    "geometry": {
       "type": "Point",
       "coordinates":  [ -8.027337,13.572813 ]
    },
    "properties": {
    "amenity":"pharmacy",
    "name":"Pharmacie SABOU"
    }
  },
  {
    "type": "Feature",
    "geometry": {
       "type": "Point",
       "coordinates":  [ -8.026904,12.64077 ]
    },
    "properties": {
    "amenity":"hospital",
    "name":"Laboratoire d'Analyse Medicale"
    }
  },
  {
    "type": "Feature",
    "geometry": {
       "type": "Point",
       "coordinates":  [ -8.026762,12.793514 ]
    },
    "properties": {
    "amenity":"pharmacy",
    "name":"Officine D"
    }
  },
  {
    "type": "Feature",
    "geometry": {
       "type": "Point",
       "coordinates":  [ -8.02665,12.656156 ]
    },
    "properties": {
    "amenity":"pharmacy",
    "name":""
    }
  },
  {
    "type": "Feature",
    "geometry": {
       "type": "Point",
       "coordinates":  [ -8.026434,12.621722 ]
    },
    "properties": {
    "amenity":"clinic",
    "name":"Centre National d'Appui ’¾ la Lutte contre la Maladie"
    }
  },
  {
    "type": "Feature",
    "geometry": {
       "type": "Point",
       "coordinates":  [ -8.026287,12.638894 ]
    },
    "properties": {
    "amenity":"clinic",
    "name":"D2 Medical"
    }
  },
  {
    "type": "Feature",
    "geometry": {
       "type": "Point",
       "coordinates":  [ -8.026212,12.638816 ]
    },
    "properties": {
    "amenity":"doctors",
    "name":"D2 Medical"
    }
  },
  {
    "type": "Feature",
    "geometry": {
       "type": "Point",
       "coordinates":  [ -8.02604,12.621405 ]
    },
    "properties": {
    "amenity":"pharmacy",
    "name":""
    }
  },
  {
    "type": "Feature",
    "geometry": {
       "type": "Point",
       "coordinates":  [ -8.025885,12.596479 ]
    },
    "properties": {
    "amenity":"doctors",
    "name":"Kala Djata"
    }
  },
  {
    "type": "Feature",
    "geometry": {
       "type": "Point",
       "coordinates":  [ -8.025796,12.528451 ]
    },
    "properties": {
    "amenity":"clinic",
    "name":"Centre medical Espoir Kabala Est"
    }
  },
  {
    "type": "Feature",
    "geometry": {
       "type": "Point",
       "coordinates":  [ -8.02577,12.636879 ]
    },
    "properties": {
    "amenity":"doctors",
    "name":"Intra Health International"
    }
  },
  {
    "type": "Feature",
    "geometry": {
       "type": "Point",
       "coordinates":  [ -8.025596,12.621676 ]
    },
    "properties": {
    "amenity":"clinic",
    "name":"Clinique du Pr. Somita KEITA"
    }
  },
  {
    "type": "Feature",
    "geometry": {
       "type": "Point",
       "coordinates":  [ -8.025263,12.586183 ]
    },
    "properties": {
    "amenity":"doctors",
    "name":"Cabinet Médical Fakola"
    }
  },
  {
    "type": "Feature",
    "geometry": {
       "type": "Point",
       "coordinates":  [ -8.024877,12.648918 ]
    },
    "properties": {
    "amenity":"pharmacy",
    "name":"Pharmacie Teninmakan"
    }
  },
  {
    "type": "Feature",
    "geometry": {
       "type": "Point",
       "coordinates":  [ -8.024421,12.653097 ]
    },
    "properties": {
    "amenity":"pharmacy",
    "name":"Pharmacie de la Mosquée"
    }
  },
  {
    "type": "Feature",
    "geometry": {
       "type": "Point",
       "coordinates":  [ -8.024378,12.65033 ]
    },
    "properties": {
    "amenity":"clinic",
    "name":"Cabinet Médical"
    }
  },
  {
    "type": "Feature",
    "geometry": {
       "type": "Point",
       "coordinates":  [ -8.024326,12.581155 ]
    },
    "properties": {
    "amenity":"pharmacy",
    "name":"Pharmacie du Plateau"
    }
  },
  {
    "type": "Feature",
    "geometry": {
       "type": "Point",
       "coordinates":  [ -8.024216,12.640516 ]
    },
    "properties": {
    "amenity":"clinic",
    "name":"Laboratoires PA et KA"
    }
  },
  {
    "type": "Feature",
    "geometry": {
       "type": "Point",
       "coordinates":  [ -8.02357,12.639345 ]
    },
    "properties": {
    "amenity":"clinic",
    "name":"Clinique KABALAN"
    }
  },
  {
    "type": "Feature",
    "geometry": {
       "type": "Point",
       "coordinates":  [ -8.023142,12.641946 ]
    },
    "properties": {
    "amenity":"pharmacy",
    "name":"Pharmacie Fata"
    }
  },
  {
    "type": "Feature",
    "geometry": {
       "type": "Point",
       "coordinates":  [ -8.021034,12.589801 ]
    },
    "properties": {
    "amenity":"pharmacy",
    "name":"Pharmacie Penda"
    }
  },
  {
    "type": "Feature",
    "geometry": {
       "type": "Point",
       "coordinates":  [ -8.021009,12.62697 ]
    },
    "properties": {
    "amenity":"clinic",
    "name":"Clinic Source de Vie"
    }
  },
  {
    "type": "Feature",
    "geometry": {
       "type": "Point",
       "coordinates":  [ -8.02076,12.586086 ]
    },
    "properties": {
    "amenity":"pharmacy",
    "name":"Pharmacie du peuple"
    }
  },
  {
    "type": "Feature",
    "geometry": {
       "type": "Point",
       "coordinates":  [ -8.020748,12.643243 ]
    },
    "properties": {
    "amenity":"pharmacy",
    "name":"Pharmacie"
    }
  },
  {
    "type": "Feature",
    "geometry": {
       "type": "Point",
       "coordinates":  [ -8.020622,12.59677 ]
    },
    "properties": {
    "amenity":"pharmacy",
    "name":"Pharmacie"
    }
  },
  {
    "type": "Feature",
    "geometry": {
       "type": "Point",
       "coordinates":  [ -8.019592,12.581218 ]
    },
    "properties": {
    "amenity":"pharmacy",
    "name":"Pharmacie Belco Maiga"
    }
  },
  {
    "type": "Feature",
    "geometry": {
       "type": "Point",
       "coordinates":  [ -8.019264,12.625925 ]
    },
    "properties": {
    "amenity":"pharmacy",
    "name":"Pharmacie Boubacar SIDIBE"
    }
  },
  {
    "type": "Feature",
    "geometry": {
       "type": "Point",
       "coordinates":  [ -8.01787,12.59356 ]
    },
    "properties": {
    "amenity":"dentist",
    "name":"Cabinet dentaire"
    }
  },
  {
    "type": "Feature",
    "geometry": {
       "type": "Point",
       "coordinates":  [ -8.017843,12.63093 ]
    },
    "properties": {
    "amenity":"clinic",
    "name":"Centre de Santé Communautaire ASACOHAM"
    }
  },
  {
    "type": "Feature",
    "geometry": {
       "type": "Point",
       "coordinates":  [ -8.017774,12.636426 ]
    },
    "properties": {
    "amenity":"clinic",
    "name":"Clinique Médicale DEFI"
    }
  },
  {
    "type": "Feature",
    "geometry": {
       "type": "Point",
       "coordinates":  [ -8.016957,12.619712 ]
    },
    "properties": {
    "amenity":"clinic",
    "name":"Centre de Santé Communautaire ASACODJENEKA"
    }
  },
  {
    "type": "Feature",
    "geometry": {
       "type": "Point",
       "coordinates":  [ -8.01691,12.650126 ]
    },
    "properties": {
    "amenity":"pharmacy",
    "name":"Pharmacie Mosquée"
    }
  },
  {
    "type": "Feature",
    "geometry": {
       "type": "Point",
       "coordinates":  [ -8.016787,12.636538 ]
    },
    "properties": {
    "amenity":"pharmacy",
    "name":"Pharmacie Teneman"
    }
  },
  {
    "type": "Feature",
    "geometry": {
       "type": "Point",
       "coordinates":  [ -8.016763,12.595429 ]
    },
    "properties": {
    "amenity":"pharmacy",
    "name":""
    }
  },
  {
    "type": "Feature",
    "geometry": {
       "type": "Point",
       "coordinates":  [ -8.016703,12.542538 ]
    },
    "properties": {
    "amenity":"clinic",
    "name":"Cabinet Medical M'BEWO"
    }
  },
  {
    "type": "Feature",
    "geometry": {
       "type": "Point",
       "coordinates":  [ -8.016077,12.655052 ]
    },
    "properties": {
    "amenity":"clinic",
    "name":"Cabinet Médical Kalale"
    }
  },
  {
    "type": "Feature",
    "geometry": {
       "type": "Point",
       "coordinates":  [ -8.016056,12.584694 ]
    },
    "properties": {
    "amenity":"pharmacy",
    "name":"Aissata sall"
    }
  },
  {
    "type": "Feature",
    "geometry": {
       "type": "Point",
       "coordinates":  [ -8.016013,12.627321 ]
    },
    "properties": {
    "amenity":"doctors",
    "name":"Cabinet Medical Mozart"
    }
  },
  {
    "type": "Feature",
    "geometry": {
       "type": "Point",
       "coordinates":  [ -8.015642,12.655198 ]
    },
    "properties": {
    "amenity":"pharmacy",
    "name":"Pharmacie Mamadou Konate"
    }
  },
  {
    "type": "Feature",
    "geometry": {
       "type": "Point",
       "coordinates":  [ -8.01557,12.64582 ]
    },
    "properties": {
    "amenity":"clinic",
    "name":"Centre de Santé Communautaire ASACOBAKON"
    }
  },
  {
    "type": "Feature",
    "geometry": {
       "type": "Point",
       "coordinates":  [ -8.015229,12.627775 ]
    },
    "properties": {
    "amenity":"pharmacy",
    "name":""
    }
  },
  {
    "type": "Feature",
    "geometry": {
       "type": "Point",
       "coordinates":  [ -8.01489,12.58591 ]
    },
    "properties": {
    "amenity":"clinic",
    "name":"Centre de Santé Communautaire ASCOMBACODJI"
    }
  },
  {
    "type": "Feature",
    "geometry": {
       "type": "Point",
       "coordinates":  [ -8.0145,12.578124 ]
    },
    "properties": {
    "amenity":"pharmacy",
    "name":"Pharmacie Diangname Togola"
    }
  },
  {
    "type": "Feature",
    "geometry": {
       "type": "Point",
       "coordinates":  [ -8.014312,12.657575 ]
    },
    "properties": {
    "amenity":"hospital",
    "name":"Infirmerie du Camp des Gardes"
    }
  },
  {
    "type": "Feature",
    "geometry": {
       "type": "Point",
       "coordinates":  [ -8.013529,12.644416 ]
    },
    "properties": {
    "amenity":"clinic",
    "name":"PMI CENTRAL"
    }
  },
  {
    "type": "Feature",
    "geometry": {
       "type": "Point",
       "coordinates":  [ -8.013482,12.577633 ]
    },
    "properties": {
    "amenity":"pharmacy",
    "name":"Pharmacie D TOGOLA"
    }
  },
  {
    "type": "Feature",
    "geometry": {
       "type": "Point",
       "coordinates":  [ -8.013397,12.64449 ]
    },
    "properties": {
    "amenity":"clinic",
    "name":"Centre de Santé de Référence de Commune 3"
    }
  },
  {
    "type": "Feature",
    "geometry": {
       "type": "Point",
       "coordinates":  [ -8.0133,12.65184 ]
    },
    "properties": {
    "amenity":"clinic",
    "name":"Centre de Santé Communautaire ASACOTOM"
    }
  },
  {
    "type": "Feature",
    "geometry": {
       "type": "Point",
       "coordinates":  [ -8.012826,12.600106 ]
    },
    "properties": {
    "amenity":"pharmacy",
    "name":"pharmacie"
    }
  },
  {
    "type": "Feature",
    "geometry": {
       "type": "Point",
       "coordinates":  [ -8.012794,12.599585 ]
    },
    "properties": {
    "amenity":"clinic",
    "name":"’_den chez Célestin"
    }
  },
  {
    "type": "Feature",
    "geometry": {
       "type": "Point",
       "coordinates":  [ -8.012136,12.584801 ]
    },
    "properties": {
    "amenity":"pharmacy",
    "name":"Pharmacie Dunia"
    }
  },
  {
    "type": "Feature",
    "geometry": {
       "type": "Point",
       "coordinates":  [ -8.011964,12.584571 ]
    },
    "properties": {
    "amenity":"pharmacy",
    "name":"Pharmacie Dunia"
    }
  },
  {
    "type": "Feature",
    "geometry": {
       "type": "Point",
       "coordinates":  [ -8.011254,12.57604 ]
    },
    "properties": {
    "amenity":"pharmacy",
    "name":"Vigil Pharma"
    }
  },
  {
    "type": "Feature",
    "geometry": {
       "type": "Point",
       "coordinates":  [ -8.010876,12.575964 ]
    },
    "properties": {
    "amenity":"pharmacy",
    "name":"Pharmacie Sanogo"
    }
  },
  {
    "type": "Feature",
    "geometry": {
       "type": "Point",
       "coordinates":  [ -8.010062,12.644982 ]
    },
    "properties": {
    "amenity":"pharmacy",
    "name":"Pharmacie massaman keita"
    }
  },
  {
    "type": "Feature",
    "geometry": {
       "type": "Point",
       "coordinates":  [ -8.008535,12.605624 ]
    },
    "properties": {
    "amenity":"pharmacy",
    "name":"Boutique Vente de Couches Adultes"
    }
  },
  {
    "type": "Feature",
    "geometry": {
       "type": "Point",
       "coordinates":  [ -8.007555,12.581877 ]
    },
    "properties": {
    "amenity":"pharmacy",
    "name":"Phamacie Touchoumbe"
    }
  },
  {
    "type": "Feature",
    "geometry": {
       "type": "Point",
       "coordinates":  [ -8.007437,12.606971 ]
    },
    "properties": {
    "amenity":"pharmacy",
    "name":"pharmacie officine Amina"
    }
  },
  {
    "type": "Feature",
    "geometry": {
       "type": "Point",
       "coordinates":  [ -8.006982,12.647828 ]
    },
    "properties": {
    "amenity":"pharmacy",
    "name":"Pharmacie Babemba"
    }
  },
  {
    "type": "Feature",
    "geometry": {
       "type": "Point",
       "coordinates":  [ -8.006661,12.583423 ]
    },
    "properties": {
    "amenity":"pharmacy",
    "name":"Pharmacie Allahou Akbar"
    }
  },
  {
    "type": "Feature",
    "geometry": {
       "type": "Point",
       "coordinates":  [ -8.006537,12.671743 ]
    },
    "properties": {
    "amenity":"pharmacy",
    "name":"Pharmacie Koulouba"
    }
  },
  {
    "type": "Feature",
    "geometry": {
       "type": "Point",
       "coordinates":  [ -8.006385,12.641586 ]
    },
    "properties": {
    "amenity":"hospital",
    "name":"CSRef de la Commune III"
    }
  },
  {
    "type": "Feature",
    "geometry": {
       "type": "Point",
       "coordinates":  [ -8.005877,12.437231 ]
    },
    "properties": {
    "amenity":"doctors",
    "name":"doctors Médical Sonikara Naré"
    }
  },
  {
    "type": "Feature",
    "geometry": {
       "type": "Point",
       "coordinates":  [ -8.004769,12.630946 ]
    },
    "properties": {
    "amenity":"clinic",
    "name":"Centre Médico Social Fran’_ais"
    }
  },
  {
    "type": "Feature",
    "geometry": {
       "type": "Point",
       "coordinates":  [ -8.004622,12.575882 ]
    },
    "properties": {
    "amenity":"clinic",
    "name":"Clinique MEDICPLUS"
    }
  },
  {
    "type": "Feature",
    "geometry": {
       "type": "Point",
       "coordinates":  [ -8.00457,12.63026 ]
    },
    "properties": {
    "amenity":"clinic",
    "name":"Centre de Santé Communautaire ASACODRAB"
    }
  },
  {
    "type": "Feature",
    "geometry": {
       "type": "Point",
       "coordinates":  [ -8.004447,12.641827 ]
    },
    "properties": {
    "amenity":"pharmacy",
    "name":"Pharmacie Espace Bébé"
    }
  },
  {
    "type": "Feature",
    "geometry": {
       "type": "Point",
       "coordinates":  [ -8.004228,12.612365 ]
    },
    "properties": {
    "amenity":"doctors",
    "name":"Cebinet Medical"
    }
  },
  {
    "type": "Feature",
    "geometry": {
       "type": "Point",
       "coordinates":  [ -8.003949,12.653743 ]
    },
    "properties": {
    "amenity":"doctors",
    "name":"Centre de Santé Communautaire De Darsalam"
    }
  },
  {
    "type": "Feature",
    "geometry": {
       "type": "Point",
       "coordinates":  [ -8.003941,10.911383 ]
    },
    "properties": {
    "amenity":"clinic",
    "name":"Centre de Santé Communautaire de Yorobougoula"
    }
  },
  {
    "type": "Feature",
    "geometry": {
       "type": "Point",
       "coordinates":  [ -8.003865,12.609965 ]
    },
    "properties": {
    "amenity":"pharmacy",
    "name":"Pharmacopée A3T"
    }
  },
  {
    "type": "Feature",
    "geometry": {
       "type": "Point",
       "coordinates":  [ -8.003828,12.637851 ]
    },
    "properties": {
    "amenity":"pharmacy",
    "name":"Pharmacie Coura"
    }
  },
  {
    "type": "Feature",
    "geometry": {
       "type": "Point",
       "coordinates":  [ -8.00353,12.6367 ]
    },
    "properties": {
    "amenity":"hospital",
    "name":"CHU CNOS"
    }
  },
  {
    "type": "Feature",
    "geometry": {
       "type": "Point",
       "coordinates":  [ -8.003301,12.651578 ]
    },
    "properties": {
    "amenity":"doctors",
    "name":"Cabinet Médical Rosette"
    }
  },
  {
    "type": "Feature",
    "geometry": {
       "type": "Point",
       "coordinates":  [ -8.003235,12.651578 ]
    },
    "properties": {
    "amenity":"clinic",
    "name":"La Rosette"
    }
  },
  {
    "type": "Feature",
    "geometry": {
       "type": "Point",
       "coordinates":  [ -8.002909,12.557183 ]
    },
    "properties": {
    "amenity":"pharmacy",
    "name":"Pharmacie Bamamou"
    }
  },
  {
    "type": "Feature",
    "geometry": {
       "type": "Point",
       "coordinates":  [ -8.002871,12.651049 ]
    },
    "properties": {
    "amenity":"pharmacy",
    "name":"Pharmacie du 26Mars"
    }
  },
  {
    "type": "Feature",
    "geometry": {
       "type": "Point",
       "coordinates":  [ -8.00276,12.636246 ]
    },
    "properties": {
    "amenity":"pharmacy",
    "name":"Pharmavet"
    }
  },
  {
    "type": "Feature",
    "geometry": {
       "type": "Point",
       "coordinates":  [ -8.002642,12.559516 ]
    },
    "properties": {
    "amenity":"pharmacy",
    "name":"Pharmacie Tenema"
    }
  },
  {
    "type": "Feature",
    "geometry": {
       "type": "Point",
       "coordinates":  [ -8.002634,12.559341 ]
    },
    "properties": {
    "amenity":"pharmacy",
    "name":"Pharmacie"
    }
  },
  {
    "type": "Feature",
    "geometry": {
       "type": "Point",
       "coordinates":  [ -8.002473,12.611509 ]
    },
    "properties": {
    "amenity":"pharmacy",
    "name":"Pharmacopée Dagaba"
    }
  },
  {
    "type": "Feature",
    "geometry": {
       "type": "Point",
       "coordinates":  [ -8.002349,12.559433 ]
    },
    "properties": {
    "amenity":"clinic",
    "name":"Clinique Ambodou"
    }
  },
  {
    "type": "Feature",
    "geometry": {
       "type": "Point",
       "coordinates":  [ -8.002215,12.611345 ]
    },
    "properties": {
    "amenity":"dentist",
    "name":"Cabinet Dentaire Sankoré"
    }
  },
  {
    "type": "Feature",
    "geometry": {
       "type": "Point",
       "coordinates":  [ -8.002093,12.639502 ]
    },
    "properties": {
    "amenity":"pharmacy",
    "name":"pharmacie de la nation"
    }
  },
  {
    "type": "Feature",
    "geometry": {
       "type": "Point",
       "coordinates":  [ -8.001758,12.637602 ]
    },
    "properties": {
    "amenity":"pharmacy",
    "name":"Pharmacie Populaire du Mali"
    }
  },
  {
    "type": "Feature",
    "geometry": {
       "type": "Point",
       "coordinates":  [ -8.00155,12.569333 ]
    },
    "properties": {
    "amenity":"pharmacy",
    "name":""
    }
  },
  {
    "type": "Feature",
    "geometry": {
       "type": "Point",
       "coordinates":  [ -8.00142,12.64181 ]
    },
    "properties": {
    "amenity":"clinic",
    "name":"Centre de Santé Communautaire ASACOOB"
    }
  },
  {
    "type": "Feature",
    "geometry": {
       "type": "Point",
       "coordinates":  [ -8.001371,12.612191 ]
    },
    "properties": {
    "amenity":"pharmacy",
    "name":""
    }
  },
  {
    "type": "Feature",
    "geometry": {
       "type": "Point",
       "coordinates":  [ -8.000897,12.574863 ]
    },
    "properties": {
    "amenity":"clinic",
    "name":"Centre de Santé Communautaire ASACOSAB II"
    }
  },
  {
    "type": "Feature",
    "geometry": {
       "type": "Point",
       "coordinates":  [ -8.000701,12.566464 ]
    },
    "properties": {
    "amenity":"pharmacy",
    "name":"Pharmacie Touchoumbé"
    }
  },
  {
    "type": "Feature",
    "geometry": {
       "type": "Point",
       "coordinates":  [ -8.000512,11.418322 ]
    },
    "properties": {
    "amenity":"clinic",
    "name":"Centre de Santé Communautaire de Torakoro"
    }
  },
  {
    "type": "Feature",
    "geometry": {
       "type": "Point",
       "coordinates":  [ -8.000484,12.56651 ]
    },
    "properties": {
    "amenity":"pharmacy",
    "name":"Pharmacie Fodé - Doumbia"
    }
  },
  {
    "type": "Feature",
    "geometry": {
       "type": "Point",
       "coordinates":  [ -8.000365,12.645002 ]
    },
    "properties": {
    "amenity":"clinic",
    "name":"Cabinet médical de la Liberté"
    }
  },
  {
    "type": "Feature",
    "geometry": {
       "type": "Point",
       "coordinates":  [ -8.000261,12.662038 ]
    },
    "properties": {
    "amenity":"doctors",
    "name":"Mutec Santé"
    }
  },
  {
    "type": "Feature",
    "geometry": {
       "type": "Point",
       "coordinates":  [ -8.000231,12.645591 ]
    },
    "properties": {
    "amenity":"pharmacy",
    "name":"Pharmacie Belco"
    }
  },
  {
    "type": "Feature",
    "geometry": {
       "type": "Point",
       "coordinates":  [ -8.000215,12.644074 ]
    },
    "properties": {
    "amenity":"pharmacy",
    "name":"Pharmacie Cathédrale"
    }
  },
  {
    "type": "Feature",
    "geometry": {
       "type": "Point",
       "coordinates":  [ -8.00019,12.683599 ]
    },
    "properties": {
    "amenity":"clinic",
    "name":"Centre de Santé Communautaire ASACOGO"
    }
  },
  {
    "type": "Feature",
    "geometry": {
       "type": "Point",
       "coordinates":  [ -8.000188,12.545733 ]
    },
    "properties": {
    "amenity":"pharmacy",
    "name":"Pharmacie Macha Allah"
    }
  },
  {
    "type": "Feature",
    "geometry": {
       "type": "Point",
       "coordinates":  [ -8.00018,12.645184 ]
    },
    "properties": {
    "amenity":"pharmacy",
    "name":"Pharmacie populaire du Mali Laboratoire galénique"
    }
  },
  {
    "type": "Feature",
    "geometry": {
       "type": "Point",
       "coordinates":  [ -8.000129,12.566484 ]
    },
    "properties": {
    "amenity":"pharmacy",
    "name":"Yaye Diakité"
    }
  },
  {
    "type": "Feature",
    "geometry": {
       "type": "Point",
       "coordinates":  [ -8.000119,12.578029 ]
    },
    "properties": {
    "amenity":"pharmacy",
    "name":"Pharmacie Yaye Diakite"
    }
  },
  {
    "type": "Feature",
    "geometry": {
       "type": "Point",
       "coordinates":  [ -8.0001,12.55023 ]
    },
    "properties": {
    "amenity":"pharmacy",
    "name":"Pharmacie Notre-Dame"
    }
  },
  {
    "type": "Feature",
    "geometry": {
       "type": "Point",
       "coordinates":  [ -7.999946,12.569994 ]
    },
    "properties": {
    "amenity":"doctors",
    "name":"doctors Médical 1ere Plaque"
    }
  },
  {
    "type": "Feature",
    "geometry": {
       "type": "Point",
       "coordinates":  [ -7.999687,12.64711 ]
    },
    "properties": {
    "amenity":"pharmacy",
    "name":"Pharmacie Populaire du Mali"
    }
  },
  {
    "type": "Feature",
    "geometry": {
       "type": "Point",
       "coordinates":  [ -7.999605,12.548372 ]
    },
    "properties": {
    "amenity":"pharmacy",
    "name":"Pharmacie Djouma Barry"
    }
  },
  {
    "type": "Feature",
    "geometry": {
       "type": "Point",
       "coordinates":  [ -7.998827,12.647479 ]
    },
    "properties": {
    "amenity":"pharmacy",
    "name":""
    }
  },
  {
    "type": "Feature",
    "geometry": {
       "type": "Point",
       "coordinates":  [ -7.998569,12.649683 ]
    },
    "properties": {
    "amenity":"pharmacy",
    "name":"Pharmacie Cora"
    }
  },
  {
    "type": "Feature",
    "geometry": {
       "type": "Point",
       "coordinates":  [ -7.998411,12.61412 ]
    },
    "properties": {
    "amenity":"pharmacy",
    "name":"Pharmacie du 2è Pont"
    }
  },
  {
    "type": "Feature",
    "geometry": {
       "type": "Point",
       "coordinates":  [ -7.998406,12.503512 ]
    },
    "properties": {
    "amenity":"doctors",
    "name":""
    }
  },
  {
    "type": "Feature",
    "geometry": {
       "type": "Point",
       "coordinates":  [ -7.997671,12.640448 ]
    },
    "properties": {
    "amenity":"pharmacy",
    "name":"Pharmacie Malapharm"
    }
  },
  {
    "type": "Feature",
    "geometry": {
       "type": "Point",
       "coordinates":  [ -7.997472,12.633706 ]
    },
    "properties": {
    "amenity":"doctors",
    "name":"Centre de Santé MUTEC"
    }
  },
  {
    "type": "Feature",
    "geometry": {
       "type": "Point",
       "coordinates":  [ -7.997273,12.572866 ]
    },
    "properties": {
    "amenity":"pharmacy",
    "name":"Pharmacie Sigaroume"
    }
  },
  {
    "type": "Feature",
    "geometry": {
       "type": "Point",
       "coordinates":  [ -7.99714,12.64777 ]
    },
    "properties": {
    "amenity":"clinic",
    "name":"Centre de Santé Communautaire ASACODAR"
    }
  },
  {
    "type": "Feature",
    "geometry": {
       "type": "Point",
       "coordinates":  [ -7.997011,12.641156 ]
    },